{"type": "FeatureCollection", "features": [{"type": "Feature", "geometry": {"type": "Point", "coordinates": [-118.1907858, 33.915857]}, "properties": {"hours": "M-F 0700-0800", "notes": "free breakfast burrito", "name": "Toast", "street": "11119 First Ave", "city": "Los Angeles", "state": "CA", "zip": "", "full-address": "11119 First Ave, Los Angeles, CA, ", "ig-handle": "", "twitter": "", "phone": "", "website": "", "email": ""}}, {"type": "Feature", "geometry": {"type": "Point", "coordinates": [-117.9246256, 33.9910145]}, "properties": {"hours": "M-F 0700-0800", "notes": "free breakfast burrito", "name": "The Benediction ", "street": "17501 Colima Road", "city": "City of Industry", "state": "CA", "zip": "", "full-address": "17501 Colima Road, City of Industry, CA, ", "ig-handle": "", "twitter": "", "phone": "", "website": "", "email": ""}}, {"type": "Feature", "geometry": {"type": "Point", "coordinates": [-117.8825139, 33.9183154]}, "properties": {"hours": "M-F 0700-0800", "notes": "free breakfast burrito", "name": "The Dylan", "street": "190 S State College Blvd", "city": "Brea", "state": "CA", "zip": "", "full-address": "190 S State College Blvd, Brea, CA, ", "ig-handle": "", "twitter": "", "phone": "", "website": "", "email": ""}}, {"type": "Feature", "geometry": {"type": "Point", "coordinates": [-118.3093223, 33.9441359]}, "properties": {"hours": "0930-1200", "notes": "free meals 5-17yoa", "name": "TEACH Academy", "street": "10045 S. Western", "city": "Los Angeles", "state": "CA", "zip": 90047, "full-address": "10045 S. Western, Los Angeles, CA, 90047", "ig-handle": "", "twitter": "", "phone": "(562) 665-6263", "website": "", "email": ""}}, {"type": "Feature", "geometry": {"type": "Point", "coordinates": [-118.361263, 34.0795166]}, "properties": {"hours": "1200-2000", "notes": "LAUSD", "name": "Prime Pizza", "street": "446 N Fairfax Ave.", "city": "Los Angeles", "state": "CA", "zip": 90036, "full-address": "446 N Fairfax Ave., Los Angeles, CA, 90036", "ig-handle": "@primepizzala", "twitter": "", "phone": "", "website": "https://primepizza.la/locations", "email": ""}}, {"type": "Feature", "geometry": {"type": "Point", "coordinates": [-118.2395793, 34.0482257]}, "properties": {"hours": "1200-2000", "notes": "LAUSD", "name": "Prime Pizza", "street": "141 S Central Ave", "city": "Los Angeles", "state": "CA", "zip": 90012, "full-address": "141 S Central Ave, Los Angeles, CA, 90012", "ig-handle": "@primepizzala", "twitter": "", "phone": "", "website": "https://primepizza.la/locations", "email": ""}}, {"type": "Feature", "geometry": {"type": "Point", "coordinates": [-118.3441631, 34.1610975]}, "properties": {"hours": "1200-2000", "notes": "LAUSD", "name": "Prime Pizza", "street": "603 N Hollywood Way", "city": "Burbank ", "state": "CA", "zip": 91505, "full-address": "603 N Hollywood Way, Burbank , CA, 91505", "ig-handle": "@primepizzala", "twitter": "", "phone": "", "website": "https://primepizza.la/locations", "email": ""}}], "name": "restaurants"}