{"type": "FeatureCollection", "features": [{"type": "Feature", "geometry": {"type": "Point", "coordinates": [-119.4179324, 36.778261]}, "properties": {"hours": "0800-1200", "notes": "Alliance Charter School Scholars only", "district": "", "name": "Alliance Campuses", "street": "", "city": "", "state": "CA", "zip": "", "full-address": ", , CA, ", "ig-handle": "", "twitter": "", "phone": "", "website": "", "email": ""}}, {"type": "Feature", "geometry": {"type": "Point", "coordinates": [-118.1835761, 33.8953964]}, "properties": {"hours": "0730-0830, 1100-1300", "notes": "", "district": "Compton Unified School District", "name": "Clinton Elementary School", "street": "6500 E Compton", "city": "Compton", "state": "CA", "zip": 90221, "full-address": "6500 E Compton, Compton, CA, 90221", "ig-handle": "", "twitter": "", "phone": "", "website": "", "email": ""}}, {"type": "Feature", "geometry": {"type": "Point", "coordinates": [-118.2479112, 33.9153401]}, "properties": {"hours": "0730-0830, 1100-1300", "notes": "", "district": "Compton Unified School District", "name": "McNair Elementary School", "street": "1450 W El Segundo Blvd", "city": "Compton", "state": "CA", "zip": 90221, "full-address": "1450 W El Segundo Blvd, Compton, CA, 90221", "ig-handle": "", "twitter": "", "phone": "", "website": "", "email": ""}}, {"type": "Feature", "geometry": {"type": "Point", "coordinates": [-118.2622217, 33.9005084]}, "properties": {"hours": "0730-0830, 1100-1300", "notes": "", "district": "Compton Unified School District", "name": "McKinley Elementary School", "street": "14431 S Stanford Ave", "city": "Compton", "state": "CA", "zip": 90220, "full-address": "14431 S Stanford Ave, Compton, CA, 90220", "ig-handle": "", "twitter": "", "phone": "", "website": "", "email": ""}}, {"type": "Feature", "geometry": {"type": "Point", "coordinates": [-118.2410128, 33.8854247]}, "properties": {"hours": "0730-0830, 1100-1300", "notes": "", "district": "Compton Unified School District", "name": "Longfellow Elementary School", "street": "1101 Dwight Ave", "city": "Compton", "state": "CA", "zip": 90220, "full-address": "1101 Dwight Ave, Compton, CA, 90220", "ig-handle": "", "twitter": "", "phone": "", "website": "", "email": ""}}, {"type": "Feature", "geometry": {"type": "Point", "coordinates": [-118.228861, 33.9041521]}, "properties": {"hours": "0730-0830, 1100-1300", "notes": "", "district": "Compton Unified School District", "name": "Rosecrans Elementary School", "street": "1301 N Acacia Ave", "city": "Compton", "state": "CA", "zip": 90222, "full-address": "1301 N Acacia Ave, Compton, CA, 90222", "ig-handle": "", "twitter": "", "phone": "", "website": "", "email": ""}}, {"type": "Feature", "geometry": {"type": "Point", "coordinates": [-118.225022, 33.9112905]}, "properties": {"hours": "0730-0830, 1100-1300", "notes": "", "district": "Compton Unified School District", "name": "Jefferson Elementary School", "street": "2508 E 133rd St", "city": "Compton", "state": "CA", "zip": 90222, "full-address": "2508 E 133rd St, Compton, CA, 90222", "ig-handle": "", "twitter": "", "phone": "", "website": "", "email": ""}}, {"type": "Feature", "geometry": {"type": "Point", "coordinates": [-118.19743, 33.8882938]}, "properties": {"hours": "0930-1130", "notes": "", "district": "Compton Unified School District", "name": "Kelly Elementary School", "street": "2320 E Alondra Blvd", "city": "Compton", "state": "CA", "zip": 90221, "full-address": "2320 E Alondra Blvd, Compton, CA, 90221", "ig-handle": "", "twitter": "", "phone": "", "website": "", "email": ""}}, {"type": "Feature", "geometry": {"type": "Point", "coordinates": [-118.3283784, 33.9416544]}, "properties": {"hours": "0930-1130", "notes": "CHILDREN 2-19yoa", "district": "Inglewood Unified School District", "name": "Woodworth-Monroe School", "street": "3200 W. 104th St.", "city": "Inglewood", "state": "CA", "zip": 90303, "full-address": "3200 W. 104th St., Inglewood, CA, 90303", "ig-handle": "", "twitter": "", "phone": "", "website": "", "email": ""}}, {"type": "Feature", "geometry": {"type": "Point", "coordinates": [-118.360759, 33.9607]}, "properties": {"hours": "0930-1130", "notes": "CHILDREN 2-19yoa", "district": "Inglewood Unified School District", "name": "Hudnail Elementary School", "street": "331 W. Olive St.", "city": "Inglewood", "state": "CA", "zip": 90301, "full-address": "331 W. Olive St., Inglewood, CA, 90301", "ig-handle": "", "twitter": "", "phone": "", "website": "", "email": ""}}, {"type": "Feature", "geometry": {"type": "Point", "coordinates": [-118.3629503, 33.972322]}, "properties": {"hours": "0930-1130", "notes": "CHILDREN 2-19yoa", "district": "Inglewood Unified School District", "name": "Highland Elementary School", "street": "430 Venice Wy,", "city": "Inglewood", "state": "CA", "zip": 90302, "full-address": "430 Venice Wy,, Inglewood, CA, 90302", "ig-handle": "", "twitter": "", "phone": "", "website": "", "email": ""}}, {"type": "Feature", "geometry": {"type": "Point", "coordinates": [-118.3663286, 33.9553832]}, "properties": {"hours": "1100-1230", "notes": "CHILDREN 2-19yoa", "district": "Inglewood Unified School District", "name": "Oak Street Elementary School", "street": "633 S. Oak St.", "city": "Inglewood", "state": "CA", "zip": 90301, "full-address": "633 S. Oak St., Inglewood, CA, 90301", "ig-handle": "", "twitter": "", "phone": "", "website": "", "email": ""}}, {"type": "Feature", "geometry": {"type": "Point", "coordinates": [-118.3326506, 33.9269755]}, "properties": {"hours": "0945-1030", "notes": "CHILDREN 2-19yoa", "district": "Inglewood Unified School District", "name": "Bennett-Kew Elementary School", "street": "11710 S. Cherry Ave.", "city": "Inglewood", "state": "CA", "zip": 90303, "full-address": "11710 S. Cherry Ave., Inglewood, CA, 90303", "ig-handle": "", "twitter": "", "phone": "", "website": "", "email": ""}}, {"type": "Feature", "geometry": {"type": "Point", "coordinates": [-118.3352826, 33.9345527]}, "properties": {"hours": "1045-1130", "notes": "CHILDREN 2-19yoa", "district": "Inglewood Unified School District", "name": "Worthington Elementary School", "street": "11101 S. Yukon Ave.", "city": "Inglewood", "state": "CA", "zip": 90303, "full-address": "11101 S. Yukon Ave., Inglewood, CA, 90303", "ig-handle": "", "twitter": "", "phone": "", "website": "", "email": ""}}, {"type": "Feature", "geometry": {"type": "Point", "coordinates": [-118.3585951, 33.922435]}, "properties": {"hours": "M-F 1000-1200", "notes": "", "district": "Hawthorne School District", "name": "Eucalyptus Elementary School", "street": "12044 S. Eucalyptus Avenue.", "city": "Hawthorne", "state": "CA", "zip": 90250, "full-address": "12044 S. Eucalyptus Avenue., Hawthorne, CA, 90250", "ig-handle": "", "twitter": "", "phone": "(310) 263-3990", "website": "", "email": ""}}, {"type": "Feature", "geometry": {"type": "Point", "coordinates": [-118.3514454, 33.9157731]}, "properties": {"hours": "M-F 1000-1200", "notes": "", "district": "Hawthorne School District", "name": "Washington Elementary School/Hawthorne MIddle School", "street": "4339 W. 129th St.", "city": "Hawthorne", "state": "CA", "zip": 90250, "full-address": "4339 W. 129th St., Hawthorne, CA, 90250", "ig-handle": "", "twitter": "", "phone": "(310) 263-3990", "website": "", "email": ""}}, {"type": "Feature", "geometry": {"type": "Point", "coordinates": [-118.3370402, 33.9156658]}, "properties": {"hours": "M-F 1000-1200", "notes": "", "district": "Hawthorne School District", "name": "Kornblum Elementary School", "street": "3620 W. El Segundo Blvd.", "city": "Hawthorne", "state": "CA", "zip": 90250, "full-address": "3620 W. El Segundo Blvd., Hawthorne, CA, 90250", "ig-handle": "", "twitter": "", "phone": "(310) 263-3990", "website": "", "email": ""}}, {"type": "Feature", "geometry": {"type": "Point", "coordinates": [-118.3432271, 33.9072502]}, "properties": {"hours": "M-F 1000-1200", "notes": "", "district": "Hawthorne School District", "name": "Prairie Vista Middle School", "street": "13600 Prairie Ave.", "city": "Hawthorne", "state": "CA", "zip": 90250, "full-address": "13600 Prairie Ave., Hawthorne, CA, 90250", "ig-handle": "", "twitter": "", "phone": "(310) 263-3990", "website": "", "email": ""}}, {"type": "Feature", "geometry": {"type": "Point", "coordinates": [-118.2380432, 33.9386361]}, "properties": {"hours": "Starting at 9AM", "notes": "Watts students", "district": "Watts", "name": "East Side Riders", "street": "", "city": "Watts", "state": "CA", "zip": "", "full-address": ", Watts, CA, ", "ig-handle": "@eastsideriders", "twitter": "", "phone": "", "website": "https://www.instagram.com/eastsideriders/", "email": ""}}, {"type": "Feature", "geometry": {"type": "Point", "coordinates": [-118.2057397, 33.9267449]}, "properties": {"hours": "M-F 2-3PM", "notes": "", "district": "City of Lynwood Recreation and Community Services Department", "name": "Henning Youth Center", "street": "11409 Birch Street", "city": "Lynwood", "state": "CA", "zip": 90262, "full-address": "11409 Birch Street, Lynwood, CA, 90262", "ig-handle": "@lynwoodparks", "twitter": "", "phone": "3108860453, 3108860404", "website": "", "email": "recinfo@lynwood.ca.us"}}, {"type": "Feature", "geometry": {"type": "Point", "coordinates": [-118.1898722, 33.9132896]}, "properties": {"hours": "M-F 2-3PM", "notes": "", "district": "City of Lynwood Recreation and Community Services Department", "name": "Avalos Community Center @ Burke-Ham Park", "street": "11832 Atlantic Ave", "city": "Lynwood", "state": "CA", "zip": 90262, "full-address": "11832 Atlantic Ave, Lynwood, CA, 90262", "ig-handle": "@lynwoodparks", "twitter": "", "phone": "3108860453, 3108860404", "website": "", "email": "recinfo@lynwood.ca.us"}}, {"type": "Feature", "geometry": {"type": "Point", "coordinates": [-118.269153, 34.0745204]}, "properties": {"hours": "Free breakfast (730-930am), lunch (1130-130pm), and dinner (430-630) for all LAUSD students starting Monday, March 16, 2020 from 7:30am to 6:30pm", "notes": "LAUSD student", "district": "LAUSD", "name": "Dream Center", "street": "2301 Bellevue Ave", "city": "Los Angeles", "state": "CA", "zip": 90026, "full-address": "2301 Bellevue Ave, Los Angeles, CA, 90026", "ig-handle": "@ladreamcenter", "twitter": "", "phone": "", "website": "", "email": ""}}, {"type": "Feature", "geometry": {"type": "Point", "coordinates": [-119.4179324, 36.778261]}, "properties": {"hours": "M-F 0700-1100", "notes": "", "district": "LAUSD", "name": "Susan Miller Dorsey Senior High School", "street": "", "city": "", "state": "CA", "zip": "", "full-address": ", , CA, ", "ig-handle": "", "twitter": "", "phone": "", "website": "https://achieve.lausd.net/resources?rel=outbound", "email": ""}}, {"type": "Feature", "geometry": {"type": "Point", "coordinates": [-118.3042966, 33.9372435]}, "properties": {"hours": "M-F 0700-1100", "notes": "", "district": "LAUSD", "name": "Washington Preparatory High School", "street": "10860 S. Denker Ave.", "city": "Los Angeles", "state": "CA", "zip": 90047, "full-address": "10860 S. Denker Ave., Los Angeles, CA, 90047", "ig-handle": "", "twitter": "", "phone": "", "website": "https://achieve.lausd.net/resources?rel=outbound", "email": ""}}, {"type": "Feature", "geometry": {"type": "Point", "coordinates": [-118.4164463, 34.0235718]}, "properties": {"hours": "M-F 0700-1100", "notes": "", "district": "LAUSD", "name": "Palms Middle School", "street": "10860 Woodbine St", "city": "Los Angeles", "state": "CA", "zip": 90034, "full-address": "10860 Woodbine St, Los Angeles, CA, 90034", "ig-handle": "", "twitter": "", "phone": "", "website": "https://achieve.lausd.net/resources?rel=outbound", "email": ""}}, {"type": "Feature", "geometry": {"type": "Point", "coordinates": [-118.314839, 34.0962709]}, "properties": {"hours": "M-F 0700-1100", "notes": "", "district": "LAUSD", "name": "Bernstein High School", "street": "1309 N Wilton Pl", "city": "Los Angeles", "state": "CA", "zip": 90028, "full-address": "1309 N Wilton Pl, Los Angeles, CA, 90028", "ig-handle": "", "twitter": "", "phone": "", "website": "https://achieve.lausd.net/resources?rel=outbound", "email": ""}}, {"type": "Feature", "geometry": {"type": "Point", "coordinates": [-118.3268349, 34.0417463]}, "properties": {"hours": "M-F 0700-1100", "notes": "", "district": "LAUSD", "name": "Johnnie L. Cochran Jr. Middle School", "street": "4066 Johnnie Cochran Vista", "city": "Los Angeles", "state": "CA", "zip": 90019, "full-address": "4066 Johnnie Cochran Vista, Los Angeles, CA, 90019", "ig-handle": "", "twitter": "", "phone": "", "website": "https://achieve.lausd.net/resources?rel=outbound", "email": ""}}, {"type": "Feature", "geometry": {"type": "Point", "coordinates": [-118.2920462, 33.9865188]}, "properties": {"hours": "M-F 0700-1100", "notes": "", "district": "LAUSD", "name": "John Muir Middle School", "street": "5929 S Vermont Ave", "city": "Los Angeles", "state": "CA", "zip": "", "full-address": "5929 S Vermont Ave, Los Angeles, CA, ", "ig-handle": "", "twitter": "", "phone": "", "website": "https://achieve.lausd.net/resources?rel=outbound", "email": ""}}, {"type": "Feature", "geometry": {"type": "Point", "coordinates": [-118.4222706, 33.9873819]}, "properties": {"hours": "M-F 0700-1100", "notes": "", "district": "LAUSD", "name": "Marina Del Rey Middle School", "street": "12500 braddock dr", "city": "Los Angeles", "state": "CA", "zip": 90066, "full-address": "12500 braddock dr, Los Angeles, CA, 90066", "ig-handle": "", "twitter": "", "phone": "", "website": "https://achieve.lausd.net/resources?rel=outbound", "email": ""}}, {"type": "Feature", "geometry": {"type": "Point", "coordinates": [-119.4179324, 36.778261]}, "properties": {"hours": "M-F 0700-1100", "notes": "", "district": "LAUSD", "name": "University High School Charter", "street": "", "city": "", "state": "CA", "zip": "", "full-address": ", , CA, ", "ig-handle": "", "twitter": "", "phone": "", "website": "https://achieve.lausd.net/resources?rel=outbound", "email": ""}}, {"type": "Feature", "geometry": {"type": "Point", "coordinates": [-119.4179324, 36.778261]}, "properties": {"hours": "M-F 0700-1100", "notes": "", "district": "LAUSD", "name": "Fairfax High School", "street": "", "city": "", "state": "CA", "zip": "", "full-address": ", , CA, ", "ig-handle": "", "twitter": "", "phone": "", "website": "https://achieve.lausd.net/resources?rel=outbound", "email": ""}}, {"type": "Feature", "geometry": {"type": "Point", "coordinates": [-119.4179324, 36.778261]}, "properties": {"hours": "M-F 0700-1100", "notes": "", "district": "LAUSD", "name": "Bret Harte Preparatory Middle School", "street": "", "city": "", "state": "CA", "zip": "", "full-address": ", , CA, ", "ig-handle": "", "twitter": "", "phone": "", "website": "https://achieve.lausd.net/resources?rel=outbound", "email": ""}}, {"type": "Feature", "geometry": {"type": "Point", "coordinates": [-119.4179324, 36.778261]}, "properties": {"hours": "M-F 0700-1100", "notes": "", "district": "LAUSD", "name": "Audubon Middle School", "street": "", "city": "", "state": "CA", "zip": "", "full-address": ", , CA, ", "ig-handle": "", "twitter": "", "phone": "", "website": "https://achieve.lausd.net/resources?rel=outbound", "email": ""}}, {"type": "Feature", "geometry": {"type": "Point", "coordinates": [-119.4179324, 36.778261]}, "properties": {"hours": "M-F 0700-1100", "notes": "", "district": "LAUSD", "name": "Samuel Gompers Middle School", "street": "", "city": "", "state": "CA", "zip": "", "full-address": ", , CA, ", "ig-handle": "", "twitter": "", "phone": "", "website": "https://achieve.lausd.net/resources?rel=outbound", "email": ""}}, {"type": "Feature", "geometry": {"type": "Point", "coordinates": [-119.4179324, 36.778261]}, "properties": {"hours": "M-F 0700-1100", "notes": "", "district": "LAUSD", "name": "Curtiss Middle School", "street": "", "city": "", "state": "CA", "zip": "", "full-address": ", , CA, ", "ig-handle": "", "twitter": "", "phone": "", "website": "https://achieve.lausd.net/resources?rel=outbound", "email": ""}}, {"type": "Feature", "geometry": {"type": "Point", "coordinates": [-119.4179324, 36.778261]}, "properties": {"hours": "M-F 0700-1100", "notes": "", "district": "LAUSD", "name": "Fremont High School", "street": "", "city": "", "state": "CA", "zip": "", "full-address": ", , CA, ", "ig-handle": "", "twitter": "", "phone": "", "website": "https://achieve.lausd.net/resources?rel=outbound", "email": ""}}, {"type": "Feature", "geometry": {"type": "Point", "coordinates": [-119.4179324, 36.778261]}, "properties": {"hours": "M-F 0700-1100", "notes": "", "district": "LAUSD", "name": "Peary Middle School", "street": "", "city": "", "state": "CA", "zip": "", "full-address": ", , CA, ", "ig-handle": "", "twitter": "", "phone": "", "website": "https://achieve.lausd.net/resources?rel=outbound", "email": ""}}, {"type": "Feature", "geometry": {"type": "Point", "coordinates": [-119.4179324, 36.778261]}, "properties": {"hours": "M-F 0700-1100", "notes": "", "district": "LAUSD", "name": "Narbonne High School", "street": "", "city": "", "state": "CA", "zip": "", "full-address": ", , CA, ", "ig-handle": "", "twitter": "", "phone": "", "website": "https://achieve.lausd.net/resources?rel=outbound", "email": ""}}, {"type": "Feature", "geometry": {"type": "Point", "coordinates": [-119.4179324, 36.778261]}, "properties": {"hours": "M-F 0700-1100", "notes": "", "district": "LAUSD", "name": "Edison Middle School", "street": "", "city": "", "state": "CA", "zip": "", "full-address": ", , CA, ", "ig-handle": "", "twitter": "", "phone": "", "website": "https://achieve.lausd.net/resources?rel=outbound", "email": ""}}, {"type": "Feature", "geometry": {"type": "Point", "coordinates": [-119.4179324, 36.778261]}, "properties": {"hours": "M-F 0700-1100", "notes": "", "district": "LAUSD", "name": "RHDMS", "street": "", "city": "", "state": "CA", "zip": "", "full-address": ", , CA, ", "ig-handle": "", "twitter": "", "phone": "", "website": "https://achieve.lausd.net/resources?rel=outbound", "email": ""}}, {"type": "Feature", "geometry": {"type": "Point", "coordinates": [-119.4179324, 36.778261]}, "properties": {"hours": "M-F 0700-1100", "notes": "", "district": "LAUSD", "name": "Phineas Banning Senior High School", "street": "", "city": "", "state": "CA", "zip": "", "full-address": ", , CA, ", "ig-handle": "", "twitter": "", "phone": "", "website": "https://achieve.lausd.net/resources?rel=outbound", "email": ""}}, {"type": "Feature", "geometry": {"type": "Point", "coordinates": [-119.4179324, 36.778261]}, "properties": {"hours": "M-F 0700-1100", "notes": "", "district": "LAUSD", "name": "Dymally High School", "street": "", "city": "", "state": "CA", "zip": "", "full-address": ", , CA, ", "ig-handle": "", "twitter": "", "phone": "", "website": "https://achieve.lausd.net/resources?rel=outbound", "email": ""}}, {"type": "Feature", "geometry": {"type": "Point", "coordinates": [-119.4179324, 36.778261]}, "properties": {"hours": "M-F 0700-1100", "notes": "", "district": "LAUSD", "name": "Markham Middle School", "street": "", "city": "", "state": "CA", "zip": "", "full-address": ", , CA, ", "ig-handle": "", "twitter": "", "phone": "", "website": "https://achieve.lausd.net/resources?rel=outbound", "email": ""}}, {"type": "Feature", "geometry": {"type": "Point", "coordinates": [-119.4179324, 36.778261]}, "properties": {"hours": "M-F 0700-1100", "notes": "", "district": "LAUSD", "name": "Stephen M White Middle School", "street": "", "city": "", "state": "CA", "zip": "", "full-address": ", , CA, ", "ig-handle": "", "twitter": "", "phone": "", "website": "https://achieve.lausd.net/resources?rel=outbound", "email": ""}}, {"type": "Feature", "geometry": {"type": "Point", "coordinates": [-119.4179324, 36.778261]}, "properties": {"hours": "M-F 0700-1100", "notes": "", "district": "LAUSD", "name": "Rancho Dominguez Preparatory", "street": "", "city": "", "state": "CA", "zip": "", "full-address": ", , CA, ", "ig-handle": "", "twitter": "", "phone": "", "website": "https://achieve.lausd.net/resources?rel=outbound", "email": ""}}, {"type": "Feature", "geometry": {"type": "Point", "coordinates": [-119.4179324, 36.778261]}, "properties": {"hours": "M-F 0700-1100", "notes": "", "district": "LAUSD", "name": "John A. Sutter Middle School", "street": "", "city": "", "state": "CA", "zip": "", "full-address": ", , CA, ", "ig-handle": "", "twitter": "", "phone": "", "website": "https://achieve.lausd.net/resources?rel=outbound", "email": ""}}, {"type": "Feature", "geometry": {"type": "Point", "coordinates": [-119.4179324, 36.778261]}, "properties": {"hours": "M-F 0700-1100", "notes": "", "district": "LAUSD", "name": "Chatsworth Charter High School", "street": "", "city": "", "state": "CA", "zip": "", "full-address": ", , CA, ", "ig-handle": "", "twitter": "", "phone": "", "website": "https://achieve.lausd.net/resources?rel=outbound", "email": ""}}, {"type": "Feature", "geometry": {"type": "Point", "coordinates": [-119.4179324, 36.778261]}, "properties": {"hours": "M-F 0700-1100", "notes": "", "district": "LAUSD", "name": "George K. Porter Middle School", "street": "", "city": "", "state": "CA", "zip": "", "full-address": ", , CA, ", "ig-handle": "", "twitter": "", "phone": "", "website": "https://achieve.lausd.net/resources?rel=outbound", "email": ""}}, {"type": "Feature", "geometry": {"type": "Point", "coordinates": [-119.4179324, 36.778261]}, "properties": {"hours": "M-F 0700-1100", "notes": "", "district": "LAUSD", "name": "Sepulveda Middle School", "street": "", "city": "", "state": "CA", "zip": "", "full-address": ", , CA, ", "ig-handle": "", "twitter": "", "phone": "", "website": "https://achieve.lausd.net/resources?rel=outbound", "email": ""}}, {"type": "Feature", "geometry": {"type": "Point", "coordinates": [-119.4179324, 36.778261]}, "properties": {"hours": "M-F 0700-1100", "notes": "", "district": "LAUSD", "name": "Mulholland Middle School", "street": "", "city": "", "state": "CA", "zip": "", "full-address": ", , CA, ", "ig-handle": "", "twitter": "", "phone": "", "website": "https://achieve.lausd.net/resources?rel=outbound", "email": ""}}, {"type": "Feature", "geometry": {"type": "Point", "coordinates": [-119.4179324, 36.778261]}, "properties": {"hours": "M-F 0700-1100", "notes": "", "district": "LAUSD", "name": "Columbus Middle School", "street": "", "city": "", "state": "CA", "zip": "", "full-address": ", , CA, ", "ig-handle": "", "twitter": "", "phone": "", "website": "https://achieve.lausd.net/resources?rel=outbound", "email": ""}}, {"type": "Feature", "geometry": {"type": "Point", "coordinates": [-119.4179324, 36.778261]}, "properties": {"hours": "M-F 0700-1100", "notes": "", "district": "LAUSD", "name": "John F. Kennedy High School", "street": "", "city": "", "state": "CA", "zip": "", "full-address": ", , CA, ", "ig-handle": "", "twitter": "", "phone": "", "website": "https://achieve.lausd.net/resources?rel=outbound", "email": ""}}, {"type": "Feature", "geometry": {"type": "Point", "coordinates": [-119.4179324, 36.778261]}, "properties": {"hours": "M-F 0700-1100", "notes": "", "district": "LAUSD", "name": "East Valley High School", "street": "", "city": "", "state": "CA", "zip": "", "full-address": ", , CA, ", "ig-handle": "", "twitter": "", "phone": "", "website": "https://achieve.lausd.net/resources?rel=outbound", "email": ""}}, {"type": "Feature", "geometry": {"type": "Point", "coordinates": [-119.4179324, 36.778261]}, "properties": {"hours": "M-F 0700-1100", "notes": "", "district": "LAUSD", "name": "Robert Fulton College Preparatory School", "street": "", "city": "", "state": "CA", "zip": "", "full-address": ", , CA, ", "ig-handle": "", "twitter": "", "phone": "", "website": "https://achieve.lausd.net/resources?rel=outbound", "email": ""}}, {"type": "Feature", "geometry": {"type": "Point", "coordinates": [-119.4179324, 36.778261]}, "properties": {"hours": "M-F 0700-1100", "notes": "", "district": "LAUSD", "name": "San Fernando Senior High School", "street": "", "city": "", "state": "CA", "zip": "", "full-address": ", , CA, ", "ig-handle": "", "twitter": "", "phone": "", "website": "https://achieve.lausd.net/resources?rel=outbound", "email": ""}}, {"type": "Feature", "geometry": {"type": "Point", "coordinates": [-119.4179324, 36.778261]}, "properties": {"hours": "M-F 0700-1100", "notes": "", "district": "LAUSD", "name": "Byrd Middle School", "street": "", "city": "", "state": "CA", "zip": "", "full-address": ", , CA, ", "ig-handle": "", "twitter": "", "phone": "", "website": "https://achieve.lausd.net/resources?rel=outbound", "email": ""}}, {"type": "Feature", "geometry": {"type": "Point", "coordinates": [-119.4179324, 36.778261]}, "properties": {"hours": "M-F 0700-1100", "notes": "", "district": "LAUSD", "name": "Verdugo Hills High School", "street": "", "city": "", "state": "CA", "zip": "", "full-address": ", , CA, ", "ig-handle": "", "twitter": "", "phone": "", "website": "https://achieve.lausd.net/resources?rel=outbound", "email": ""}}, {"type": "Feature", "geometry": {"type": "Point", "coordinates": [-119.4179324, 36.778261]}, "properties": {"hours": "M-F 0700-1100", "notes": "", "district": "LAUSD", "name": "Van Nuys High School", "street": "", "city": "", "state": "CA", "zip": "", "full-address": ", , CA, ", "ig-handle": "", "twitter": "", "phone": "", "website": "https://achieve.lausd.net/resources?rel=outbound", "email": ""}}, {"type": "Feature", "geometry": {"type": "Point", "coordinates": [-119.4179324, 36.778261]}, "properties": {"hours": "M-F 0700-1100", "notes": "", "district": "LAUSD", "name": "Maclay Middle School", "street": "", "city": "", "state": "CA", "zip": "", "full-address": ", , CA, ", "ig-handle": "", "twitter": "", "phone": "", "website": "https://achieve.lausd.net/resources?rel=outbound", "email": ""}}, {"type": "Feature", "geometry": {"type": "Point", "coordinates": [-119.4179324, 36.778261]}, "properties": {"hours": "M-F 0700-1100", "notes": "", "district": "LAUSD", "name": "Roy Romer Middle School", "street": "", "city": "", "state": "CA", "zip": "", "full-address": ", , CA, ", "ig-handle": "", "twitter": "", "phone": "", "website": "https://achieve.lausd.net/resources?rel=outbound", "email": ""}}, {"type": "Feature", "geometry": {"type": "Point", "coordinates": [-119.4179324, 36.778261]}, "properties": {"hours": "M-F 0700-1100", "notes": "", "district": "LAUSD", "name": "Panorama High School", "street": "", "city": "", "state": "CA", "zip": "", "full-address": ", , CA, ", "ig-handle": "", "twitter": "", "phone": "", "website": "https://achieve.lausd.net/resources?rel=outbound", "email": ""}}, {"type": "Feature", "geometry": {"type": "Point", "coordinates": [-119.4179324, 36.778261]}, "properties": {"hours": "M-F 0700-1100", "notes": "", "district": "LAUSD", "name": "James A. Garfield High School", "street": "", "city": "", "state": "CA", "zip": "", "full-address": ", , CA, ", "ig-handle": "", "twitter": "", "phone": "", "website": "https://achieve.lausd.net/resources?rel=outbound", "email": ""}}, {"type": "Feature", "geometry": {"type": "Point", "coordinates": [-119.4179324, 36.778261]}, "properties": {"hours": "M-F 0700-1100", "notes": "", "district": "LAUSD", "name": "Gage Middle School", "street": "", "city": "", "state": "CA", "zip": "", "full-address": ", , CA, ", "ig-handle": "", "twitter": "", "phone": "", "website": "https://achieve.lausd.net/resources?rel=outbound", "email": ""}}, {"type": "Feature", "geometry": {"type": "Point", "coordinates": [-119.4179324, 36.778261]}, "properties": {"hours": "M-F 0700-1100", "notes": "", "district": "LAUSD", "name": "Woodrow Wilson Senior High School", "street": "", "city": "", "state": "CA", "zip": "", "full-address": ", , CA, ", "ig-handle": "", "twitter": "", "phone": "", "website": "https://achieve.lausd.net/resources?rel=outbound", "email": ""}}, {"type": "Feature", "geometry": {"type": "Point", "coordinates": [-119.4179324, 36.778261]}, "properties": {"hours": "M-F 0700-1100", "notes": "", "district": "LAUSD", "name": "Bell High School", "street": "", "city": "", "state": "CA", "zip": "", "full-address": ", , CA, ", "ig-handle": "", "twitter": "", "phone": "", "website": "https://achieve.lausd.net/resources?rel=outbound", "email": ""}}, {"type": "Feature", "geometry": {"type": "Point", "coordinates": [-119.4179324, 36.778261]}, "properties": {"hours": "M-F 0700-1100", "notes": "", "district": "LAUSD", "name": "Hollenbeck Middle School", "street": "", "city": "", "state": "CA", "zip": "", "full-address": ", , CA, ", "ig-handle": "", "twitter": "", "phone": "", "website": "https://achieve.lausd.net/resources?rel=outbound", "email": ""}}, {"type": "Feature", "geometry": {"type": "Point", "coordinates": [-119.4179324, 36.778261]}, "properties": {"hours": "M-F 0700-1100", "notes": "", "district": "LAUSD", "name": "South Gate High School", "street": "", "city": "", "state": "CA", "zip": "", "full-address": ", , CA, ", "ig-handle": "", "twitter": "", "phone": "", "website": "https://achieve.lausd.net/resources?rel=outbound", "email": ""}}, {"type": "Feature", "geometry": {"type": "Point", "coordinates": [-119.4179324, 36.778261]}, "properties": {"hours": "M-F 0700-1100", "notes": "", "district": "LAUSD", "name": "Abraham Lincoln High School", "street": "", "city": "", "state": "CA", "zip": "", "full-address": ", , CA, ", "ig-handle": "", "twitter": "", "phone": "", "website": "https://achieve.lausd.net/resources?rel=outbound", "email": ""}}, {"type": "Feature", "geometry": {"type": "Point", "coordinates": [-119.4179324, 36.778261]}, "properties": {"hours": "M-F 0700-1100", "notes": "", "district": "LAUSD", "name": "South East High School", "street": "", "city": "", "state": "CA", "zip": "", "full-address": ", , CA, ", "ig-handle": "", "twitter": "", "phone": "", "website": "https://achieve.lausd.net/resources?rel=outbound", "email": ""}}, {"type": "Feature", "geometry": {"type": "Point", "coordinates": [-119.4179324, 36.778261]}, "properties": {"hours": "M-F 0700-1100", "notes": "", "district": "LAUSD", "name": "Linda Esperanza Marquez High School", "street": "", "city": "", "state": "CA", "zip": "", "full-address": ", , CA, ", "ig-handle": "", "twitter": "", "phone": "", "website": "https://achieve.lausd.net/resources?rel=outbound", "email": ""}}, {"type": "Feature", "geometry": {"type": "Point", "coordinates": [-119.4179324, 36.778261]}, "properties": {"hours": "M-F 0700-1100", "notes": "", "district": "LAUSD", "name": "Mendez High School", "street": "", "city": "", "state": "CA", "zip": "", "full-address": ", , CA, ", "ig-handle": "", "twitter": "", "phone": "", "website": "https://achieve.lausd.net/resources?rel=outbound", "email": ""}}, {"type": "Feature", "geometry": {"type": "Point", "coordinates": [-119.4179324, 36.778261]}, "properties": {"hours": "M-F 0700-1100", "notes": "", "district": "LAUSD", "name": "Eagle Rock Junior/Senior High School", "street": "", "city": "", "state": "CA", "zip": "", "full-address": ", , CA, ", "ig-handle": "", "twitter": "", "phone": "", "website": "https://achieve.lausd.net/resources?rel=outbound", "email": ""}}, {"type": "Feature", "geometry": {"type": "Point", "coordinates": [-119.4179324, 36.778261]}, "properties": {"hours": "M-F 0700-1100", "notes": "", "district": "LAUSD", "name": "John Liechty Middle School", "street": "", "city": "", "state": "CA", "zip": "", "full-address": ", , CA, ", "ig-handle": "", "twitter": "", "phone": "", "website": "https://achieve.lausd.net/resources?rel=outbound", "email": ""}}, {"type": "Feature", "geometry": {"type": "Point", "coordinates": [-119.4179324, 36.778261]}, "properties": {"hours": "M-F 0700-1100", "notes": "", "district": "LAUSD", "name": "Manual Arts Sr High School", "street": "", "city": "", "state": "CA", "zip": "", "full-address": ", , CA, ", "ig-handle": "", "twitter": "", "phone": "", "website": "https://achieve.lausd.net/resources?rel=outbound", "email": ""}}, {"type": "Feature", "geometry": {"type": "Point", "coordinates": [-119.4179324, 36.778261]}, "properties": {"hours": "M-F 0700-1100", "notes": "", "district": "LAUSD", "name": "Robert F. Kennedy Community Schools", "street": "", "city": "", "state": "CA", "zip": "", "full-address": ", , CA, ", "ig-handle": "", "twitter": "", "phone": "", "website": "https://achieve.lausd.net/resources?rel=outbound", "email": ""}}, {"type": "Feature", "geometry": {"type": "Point", "coordinates": [-119.4179324, 36.778261]}, "properties": {"hours": "M-F 0700-1100", "notes": "", "district": "LAUSD", "name": "Sotomayor Arts and Sciences Magnet", "street": "", "city": "", "state": "CA", "zip": "", "full-address": ", , CA, ", "ig-handle": "", "twitter": "", "phone": "", "website": "https://achieve.lausd.net/resources?rel=outbound", "email": ""}}, {"type": "Feature", "geometry": {"type": "Point", "coordinates": [-119.4179324, 36.778261]}, "properties": {"hours": "M-F 0700-1100", "notes": "", "district": "LAUSD", "name": "Los Angeles Academy Middle School", "street": "", "city": "", "state": "CA", "zip": "", "full-address": ", , CA, ", "ig-handle": "", "twitter": "", "phone": "", "website": "https://achieve.lausd.net/resources?rel=outbound", "email": ""}}, {"type": "Feature", "geometry": {"type": "Point", "coordinates": [-119.4179324, 36.778261]}, "properties": {"hours": "M-F 0700-1100", "notes": "", "district": "LAUSD", "name": "Luther Burbank Middle School", "street": "", "city": "", "state": "CA", "zip": "", "full-address": ", , CA, ", "ig-handle": "", "twitter": "", "phone": "", "website": "https://achieve.lausd.net/resources?rel=outbound", "email": ""}}, {"type": "Feature", "geometry": {"type": "Point", "coordinates": [-119.4179324, 36.778261]}, "properties": {"hours": "M-F 0700-1100", "notes": "", "district": "LAUSD", "name": "Barack Obama Global Preparation Academy", "street": "", "city": "", "state": "CA", "zip": "", "full-address": ", , CA, ", "ig-handle": "", "twitter": "", "phone": "", "website": "https://achieve.lausd.net/resources?rel=outbound", "email": ""}}, {"type": "Feature", "geometry": {"type": "Point", "coordinates": [-119.4179324, 36.778261]}, "properties": {"hours": "M-F 0700-1100", "notes": "", "district": "LAUSD", "name": "\u200bDR. JULIAN NAVA LEARNING ACADEMY", "street": "", "city": "", "state": "CA", "zip": "", "full-address": ", , CA, ", "ig-handle": "", "twitter": "", "phone": "", "website": "https://achieve.lausd.net/resources?rel=outbound", "email": ""}}, {"type": "Feature", "geometry": {"type": "Point", "coordinates": [-119.4179324, 36.778261]}, "properties": {"hours": "M-F 0700-1100", "notes": "", "district": "LAUSD", "name": "Berendo Middle School", "street": "", "city": "", "state": "CA", "zip": "", "full-address": ", , CA, ", "ig-handle": "", "twitter": "", "phone": "", "website": "https://achieve.lausd.net/resources?rel=outbound", "email": ""}}, {"type": "Feature", "geometry": {"type": "Point", "coordinates": [-119.4179324, 36.778261]}, "properties": {"hours": "M-F 0700-1100", "notes": "", "district": "LAUSD", "name": "Santee Education Complex", "street": "", "city": "", "state": "CA", "zip": "", "full-address": ", , CA, ", "ig-handle": "", "twitter": "", "phone": "", "website": "https://achieve.lausd.net/resources?rel=outbound", "email": ""}}, {"type": "Feature", "geometry": {"type": "Point", "coordinates": [-117.5664384, 33.8752935]}, "properties": {"hours": "resumes April 6", "notes": "", "district": "Corona", "name": "Adams Elementary", "street": "", "city": "Corona", "state": "CA", "zip": "", "full-address": ", Corona, CA, ", "ig-handle": "", "twitter": "", "phone": "(951) 736-5000", "website": "https://www.facebook.com/CNUSD/?__tn__=kC-R&eid=ARD5qtGVjGTgq33KOvYvlpw2FCnIeL8cxpF-_omceVi9qcDYplYRed23k9ePdg-8z06JKEClisfbGjyp&hc_ref=ARSOitOPG5S7xy_EQIOJhk-Dig08qBQQ4hvz1my5OIYAUSuj3SQhfy39zm7osRfiUBM&fref=nf&__xts__[0]=68.ARDxUn2camzPm9Bv1h31jwqNd6ql-bUaVVpBFp__exMNKGYMgOToULt76iYYCsmaPwSAa0bKZRyjZmnIVOBYRoj7T8Lr5GEcy0L8LZluvCQb9Nyo3LmjqhUba9vMpRwexXRPez0vvOYpdGB2OLC_fN1sqCYDiA6rN2vpdlDAKBhxfmKeKELJwtc0aVBWIilTSrhcrkIlefRKRAUl6-L3MlPTzCoZLYXtELZJzvjUg1RiguFtRzeQ4H0GnSt3tnrNACQSwmPQisTTfE--5kBlkTLqwynQXHrpergh4M8GtviPYmlp44-AOT3QPJOeC-7S3HT6GC3-JZkflNlsn3RI69S7_g", "email": ""}}, {"type": "Feature", "geometry": {"type": "Point", "coordinates": [-117.5664384, 33.8752935]}, "properties": {"hours": "resumes April 6", "notes": "", "district": "Corona", "name": "Coronita Elementary", "street": "", "city": "Corona", "state": "CA", "zip": "", "full-address": ", Corona, CA, ", "ig-handle": "", "twitter": "", "phone": "(951) 736-5001", "website": "https://www.facebook.com/CNUSD/?__tn__=kC-R&eid=ARD5qtGVjGTgq33KOvYvlpw2FCnIeL8cxpF-_omceVi9qcDYplYRed23k9ePdg-8z06JKEClisfbGjyp&hc_ref=ARSOitOPG5S7xy_EQIOJhk-Dig08qBQQ4hvz1my5OIYAUSuj3SQhfy39zm7osRfiUBM&fref=nf&__xts__[0]=68.ARDxUn2camzPm9Bv1h31jwqNd6ql-bUaVVpBFp__exMNKGYMgOToULt76iYYCsmaPwSAa0bKZRyjZmnIVOBYRoj7T8Lr5GEcy0L8LZluvCQb9Nyo3LmjqhUba9vMpRwexXRPez0vvOYpdGB2OLC_fN1sqCYDiA6rN2vpdlDAKBhxfmKeKELJwtc0aVBWIilTSrhcrkIlefRKRAUl6-L3MlPTzCoZLYXtELZJzvjUg1RiguFtRzeQ4H0GnSt3tnrNACQSwmPQisTTfE--5kBlkTLqwynQXHrpergh4M8GtviPYmlp44-AOT3QPJOeC-7S3HT6GC3-JZkflNlsn3RI69S7_g", "email": ""}}, {"type": "Feature", "geometry": {"type": "Point", "coordinates": [-117.5664384, 33.8752935]}, "properties": {"hours": "resumes April 6", "notes": "", "district": "Corona", "name": "Garretson Elementary", "street": "", "city": "Corona", "state": "CA", "zip": "", "full-address": ", Corona, CA, ", "ig-handle": "", "twitter": "", "phone": "(951) 736-5002", "website": "https://www.facebook.com/CNUSD/?__tn__=kC-R&eid=ARD5qtGVjGTgq33KOvYvlpw2FCnIeL8cxpF-_omceVi9qcDYplYRed23k9ePdg-8z06JKEClisfbGjyp&hc_ref=ARSOitOPG5S7xy_EQIOJhk-Dig08qBQQ4hvz1my5OIYAUSuj3SQhfy39zm7osRfiUBM&fref=nf&__xts__[0]=68.ARDxUn2camzPm9Bv1h31jwqNd6ql-bUaVVpBFp__exMNKGYMgOToULt76iYYCsmaPwSAa0bKZRyjZmnIVOBYRoj7T8Lr5GEcy0L8LZluvCQb9Nyo3LmjqhUba9vMpRwexXRPez0vvOYpdGB2OLC_fN1sqCYDiA6rN2vpdlDAKBhxfmKeKELJwtc0aVBWIilTSrhcrkIlefRKRAUl6-L3MlPTzCoZLYXtELZJzvjUg1RiguFtRzeQ4H0GnSt3tnrNACQSwmPQisTTfE--5kBlkTLqwynQXHrpergh4M8GtviPYmlp44-AOT3QPJOeC-7S3HT6GC3-JZkflNlsn3RI69S7_g", "email": ""}}, {"type": "Feature", "geometry": {"type": "Point", "coordinates": [-117.5664384, 33.8752935]}, "properties": {"hours": "resumes April 6", "notes": "", "district": "Corona", "name": "Home Gardens Academy", "street": "", "city": "Corona", "state": "CA", "zip": "", "full-address": ", Corona, CA, ", "ig-handle": "", "twitter": "", "phone": "(951) 736-5003", "website": "https://www.facebook.com/CNUSD/?__tn__=kC-R&eid=ARD5qtGVjGTgq33KOvYvlpw2FCnIeL8cxpF-_omceVi9qcDYplYRed23k9ePdg-8z06JKEClisfbGjyp&hc_ref=ARSOitOPG5S7xy_EQIOJhk-Dig08qBQQ4hvz1my5OIYAUSuj3SQhfy39zm7osRfiUBM&fref=nf&__xts__[0]=68.ARDxUn2camzPm9Bv1h31jwqNd6ql-bUaVVpBFp__exMNKGYMgOToULt76iYYCsmaPwSAa0bKZRyjZmnIVOBYRoj7T8Lr5GEcy0L8LZluvCQb9Nyo3LmjqhUba9vMpRwexXRPez0vvOYpdGB2OLC_fN1sqCYDiA6rN2vpdlDAKBhxfmKeKELJwtc0aVBWIilTSrhcrkIlefRKRAUl6-L3MlPTzCoZLYXtELZJzvjUg1RiguFtRzeQ4H0GnSt3tnrNACQSwmPQisTTfE--5kBlkTLqwynQXHrpergh4M8GtviPYmlp44-AOT3QPJOeC-7S3HT6GC3-JZkflNlsn3RI69S7_g", "email": ""}}, {"type": "Feature", "geometry": {"type": "Point", "coordinates": [-117.5664384, 33.8752935]}, "properties": {"hours": "resumes April 6", "notes": "", "district": "Corona", "name": "Jefferson Elementary", "street": "", "city": "Corona", "state": "CA", "zip": "", "full-address": ", Corona, CA, ", "ig-handle": "", "twitter": "", "phone": "(951) 736-5004", "website": "https://www.facebook.com/CNUSD/?__tn__=kC-R&eid=ARD5qtGVjGTgq33KOvYvlpw2FCnIeL8cxpF-_omceVi9qcDYplYRed23k9ePdg-8z06JKEClisfbGjyp&hc_ref=ARSOitOPG5S7xy_EQIOJhk-Dig08qBQQ4hvz1my5OIYAUSuj3SQhfy39zm7osRfiUBM&fref=nf&__xts__[0]=68.ARDxUn2camzPm9Bv1h31jwqNd6ql-bUaVVpBFp__exMNKGYMgOToULt76iYYCsmaPwSAa0bKZRyjZmnIVOBYRoj7T8Lr5GEcy0L8LZluvCQb9Nyo3LmjqhUba9vMpRwexXRPez0vvOYpdGB2OLC_fN1sqCYDiA6rN2vpdlDAKBhxfmKeKELJwtc0aVBWIilTSrhcrkIlefRKRAUl6-L3MlPTzCoZLYXtELZJzvjUg1RiguFtRzeQ4H0GnSt3tnrNACQSwmPQisTTfE--5kBlkTLqwynQXHrpergh4M8GtviPYmlp44-AOT3QPJOeC-7S3HT6GC3-JZkflNlsn3RI69S7_g", "email": ""}}, {"type": "Feature", "geometry": {"type": "Point", "coordinates": [-117.5664384, 33.8752935]}, "properties": {"hours": "resumes April 6", "notes": "", "district": "Corona", "name": "Lincoln Elementary", "street": "", "city": "Corona", "state": "CA", "zip": "", "full-address": ", Corona, CA, ", "ig-handle": "", "twitter": "", "phone": "(951) 736-5005", "website": "https://www.facebook.com/CNUSD/?__tn__=kC-R&eid=ARD5qtGVjGTgq33KOvYvlpw2FCnIeL8cxpF-_omceVi9qcDYplYRed23k9ePdg-8z06JKEClisfbGjyp&hc_ref=ARSOitOPG5S7xy_EQIOJhk-Dig08qBQQ4hvz1my5OIYAUSuj3SQhfy39zm7osRfiUBM&fref=nf&__xts__[0]=68.ARDxUn2camzPm9Bv1h31jwqNd6ql-bUaVVpBFp__exMNKGYMgOToULt76iYYCsmaPwSAa0bKZRyjZmnIVOBYRoj7T8Lr5GEcy0L8LZluvCQb9Nyo3LmjqhUba9vMpRwexXRPez0vvOYpdGB2OLC_fN1sqCYDiA6rN2vpdlDAKBhxfmKeKELJwtc0aVBWIilTSrhcrkIlefRKRAUl6-L3MlPTzCoZLYXtELZJzvjUg1RiguFtRzeQ4H0GnSt3tnrNACQSwmPQisTTfE--5kBlkTLqwynQXHrpergh4M8GtviPYmlp44-AOT3QPJOeC-7S3HT6GC3-JZkflNlsn3RI69S7_g", "email": ""}}, {"type": "Feature", "geometry": {"type": "Point", "coordinates": [-117.5664384, 33.8752935]}, "properties": {"hours": "resumes April 6", "notes": "", "district": "Corona", "name": "McKinley Elementary School", "street": "", "city": "Corona", "state": "CA", "zip": "", "full-address": ", Corona, CA, ", "ig-handle": "", "twitter": "", "phone": "(951) 736-5006", "website": "https://www.facebook.com/CNUSD/?__tn__=kC-R&eid=ARD5qtGVjGTgq33KOvYvlpw2FCnIeL8cxpF-_omceVi9qcDYplYRed23k9ePdg-8z06JKEClisfbGjyp&hc_ref=ARSOitOPG5S7xy_EQIOJhk-Dig08qBQQ4hvz1my5OIYAUSuj3SQhfy39zm7osRfiUBM&fref=nf&__xts__[0]=68.ARDxUn2camzPm9Bv1h31jwqNd6ql-bUaVVpBFp__exMNKGYMgOToULt76iYYCsmaPwSAa0bKZRyjZmnIVOBYRoj7T8Lr5GEcy0L8LZluvCQb9Nyo3LmjqhUba9vMpRwexXRPez0vvOYpdGB2OLC_fN1sqCYDiA6rN2vpdlDAKBhxfmKeKELJwtc0aVBWIilTSrhcrkIlefRKRAUl6-L3MlPTzCoZLYXtELZJzvjUg1RiguFtRzeQ4H0GnSt3tnrNACQSwmPQisTTfE--5kBlkTLqwynQXHrpergh4M8GtviPYmlp44-AOT3QPJOeC-7S3HT6GC3-JZkflNlsn3RI69S7_g", "email": ""}}, {"type": "Feature", "geometry": {"type": "Point", "coordinates": [-117.5664384, 33.8752935]}, "properties": {"hours": "resumes April 6", "notes": "", "district": "Corona", "name": "Parkridge Elementary", "street": "", "city": "Corona", "state": "CA", "zip": "", "full-address": ", Corona, CA, ", "ig-handle": "", "twitter": "", "phone": "(951) 736-5007", "website": "https://www.facebook.com/CNUSD/?__tn__=kC-R&eid=ARD5qtGVjGTgq33KOvYvlpw2FCnIeL8cxpF-_omceVi9qcDYplYRed23k9ePdg-8z06JKEClisfbGjyp&hc_ref=ARSOitOPG5S7xy_EQIOJhk-Dig08qBQQ4hvz1my5OIYAUSuj3SQhfy39zm7osRfiUBM&fref=nf&__xts__[0]=68.ARDxUn2camzPm9Bv1h31jwqNd6ql-bUaVVpBFp__exMNKGYMgOToULt76iYYCsmaPwSAa0bKZRyjZmnIVOBYRoj7T8Lr5GEcy0L8LZluvCQb9Nyo3LmjqhUba9vMpRwexXRPez0vvOYpdGB2OLC_fN1sqCYDiA6rN2vpdlDAKBhxfmKeKELJwtc0aVBWIilTSrhcrkIlefRKRAUl6-L3MlPTzCoZLYXtELZJzvjUg1RiguFtRzeQ4H0GnSt3tnrNACQSwmPQisTTfE--5kBlkTLqwynQXHrpergh4M8GtviPYmlp44-AOT3QPJOeC-7S3HT6GC3-JZkflNlsn3RI69S7_g", "email": ""}}, {"type": "Feature", "geometry": {"type": "Point", "coordinates": [-117.5664384, 33.8752935]}, "properties": {"hours": "resumes April 6", "notes": "", "district": "Corona", "name": "Stallings Elementary", "street": "", "city": "Corona", "state": "CA", "zip": "", "full-address": ", Corona, CA, ", "ig-handle": "", "twitter": "", "phone": "(951) 736-5008", "website": "https://www.facebook.com/CNUSD/?__tn__=kC-R&eid=ARD5qtGVjGTgq33KOvYvlpw2FCnIeL8cxpF-_omceVi9qcDYplYRed23k9ePdg-8z06JKEClisfbGjyp&hc_ref=ARSOitOPG5S7xy_EQIOJhk-Dig08qBQQ4hvz1my5OIYAUSuj3SQhfy39zm7osRfiUBM&fref=nf&__xts__[0]=68.ARDxUn2camzPm9Bv1h31jwqNd6ql-bUaVVpBFp__exMNKGYMgOToULt76iYYCsmaPwSAa0bKZRyjZmnIVOBYRoj7T8Lr5GEcy0L8LZluvCQb9Nyo3LmjqhUba9vMpRwexXRPez0vvOYpdGB2OLC_fN1sqCYDiA6rN2vpdlDAKBhxfmKeKELJwtc0aVBWIilTSrhcrkIlefRKRAUl6-L3MlPTzCoZLYXtELZJzvjUg1RiguFtRzeQ4H0GnSt3tnrNACQSwmPQisTTfE--5kBlkTLqwynQXHrpergh4M8GtviPYmlp44-AOT3QPJOeC-7S3HT6GC3-JZkflNlsn3RI69S7_g", "email": ""}}, {"type": "Feature", "geometry": {"type": "Point", "coordinates": [-117.5664384, 33.8752935]}, "properties": {"hours": "resumes April 6", "notes": "", "district": "Corona", "name": "Vicentia Elementary", "street": "", "city": "Corona", "state": "CA", "zip": "", "full-address": ", Corona, CA, ", "ig-handle": "", "twitter": "", "phone": "(951) 736-5009", "website": "https://www.facebook.com/CNUSD/?__tn__=kC-R&eid=ARD5qtGVjGTgq33KOvYvlpw2FCnIeL8cxpF-_omceVi9qcDYplYRed23k9ePdg-8z06JKEClisfbGjyp&hc_ref=ARSOitOPG5S7xy_EQIOJhk-Dig08qBQQ4hvz1my5OIYAUSuj3SQhfy39zm7osRfiUBM&fref=nf&__xts__[0]=68.ARDxUn2camzPm9Bv1h31jwqNd6ql-bUaVVpBFp__exMNKGYMgOToULt76iYYCsmaPwSAa0bKZRyjZmnIVOBYRoj7T8Lr5GEcy0L8LZluvCQb9Nyo3LmjqhUba9vMpRwexXRPez0vvOYpdGB2OLC_fN1sqCYDiA6rN2vpdlDAKBhxfmKeKELJwtc0aVBWIilTSrhcrkIlefRKRAUl6-L3MlPTzCoZLYXtELZJzvjUg1RiguFtRzeQ4H0GnSt3tnrNACQSwmPQisTTfE--5kBlkTLqwynQXHrpergh4M8GtviPYmlp44-AOT3QPJOeC-7S3HT6GC3-JZkflNlsn3RI69S7_g", "email": ""}}, {"type": "Feature", "geometry": {"type": "Point", "coordinates": [-117.5664384, 33.8752935]}, "properties": {"hours": "resumes April 6", "notes": "", "district": "Corona", "name": "Washington Elementary", "street": "", "city": "Corona", "state": "CA", "zip": "", "full-address": ", Corona, CA, ", "ig-handle": "", "twitter": "", "phone": "(951) 736-5010", "website": "https://www.facebook.com/CNUSD/?__tn__=kC-R&eid=ARD5qtGVjGTgq33KOvYvlpw2FCnIeL8cxpF-_omceVi9qcDYplYRed23k9ePdg-8z06JKEClisfbGjyp&hc_ref=ARSOitOPG5S7xy_EQIOJhk-Dig08qBQQ4hvz1my5OIYAUSuj3SQhfy39zm7osRfiUBM&fref=nf&__xts__[0]=68.ARDxUn2camzPm9Bv1h31jwqNd6ql-bUaVVpBFp__exMNKGYMgOToULt76iYYCsmaPwSAa0bKZRyjZmnIVOBYRoj7T8Lr5GEcy0L8LZluvCQb9Nyo3LmjqhUba9vMpRwexXRPez0vvOYpdGB2OLC_fN1sqCYDiA6rN2vpdlDAKBhxfmKeKELJwtc0aVBWIilTSrhcrkIlefRKRAUl6-L3MlPTzCoZLYXtELZJzvjUg1RiguFtRzeQ4H0GnSt3tnrNACQSwmPQisTTfE--5kBlkTLqwynQXHrpergh4M8GtviPYmlp44-AOT3QPJOeC-7S3HT6GC3-JZkflNlsn3RI69S7_g", "email": ""}}, {"type": "Feature", "geometry": {"type": "Point", "coordinates": [-117.3754942, 33.9806005]}, "properties": {"hours": "Breakfast and Lunch 1000 - 1200", "notes": "", "district": "Riverside", "name": "All RUSD Middle Schools", "street": "", "city": "Riverside", "state": "CA", "zip": "", "full-address": ", Riverside, CA, ", "ig-handle": "", "twitter": "", "phone": "", "website": "http://riversideunified.org/departments/pupil_services/health_services/coronavirus_info/meal_service_schedule_during_school_closure", "email": ""}}, {"type": "Feature", "geometry": {"type": "Point", "coordinates": [-117.3562766, 33.9751144]}, "properties": {"hours": "Breakfast and Lunch 1000 - 1200", "notes": "", "district": "Riverside", "name": "Bobby Bonds Community Center", "street": "2060 University Ave.", "city": "Riverside", "state": "CA", "zip": 92507, "full-address": "2060 University Ave., Riverside, CA, 92507", "ig-handle": "", "twitter": "", "phone": "", "website": "http://riversideunified.org/departments/pupil_services/health_services/coronavirus_info/meal_service_schedule_during_school_closure", "email": ""}}, {"type": "Feature", "geometry": {"type": "Point", "coordinates": [-117.3973585, 33.9342857]}, "properties": {"hours": "Breakfast and Lunch 1000 - 1200", "notes": "", "district": "Riverside", "name": "Ysmael VIllegas Community Center", "street": "3091 Esperanza St.", "city": "Riverside", "state": "CA", "zip": 92504, "full-address": "3091 Esperanza St., Riverside, CA, 92504", "ig-handle": "", "twitter": "", "phone": "", "website": "http://riversideunified.org/departments/pupil_services/health_services/coronavirus_info/meal_service_schedule_during_school_closure", "email": ""}}, {"type": "Feature", "geometry": {"type": "Point", "coordinates": [-116.9719684, 33.7475203]}, "properties": {"hours": "T, W, F 1100 - 1200 // March 16-April 30", "notes": "children must be present; must be 18 years or younger", "district": "Hemet", "name": "Bautista Creek Elementary", "street": "", "city": "Hemet", "state": "CA", "zip": "", "full-address": ", Hemet, CA, ", "ig-handle": "", "twitter": "", "phone": "", "website": "https://www.hemetusd.org/apps/pages/index.jsp?uREC_ID=1695685&type=d&pREC_ID=1856039", "email": ""}}, {"type": "Feature", "geometry": {"type": "Point", "coordinates": [-116.9719684, 33.7475203]}, "properties": {"hours": "T, W, F 1100 - 1200 // March 16-April 30", "notes": "children must be present; must be 18 years or younger", "district": "Hemet", "name": "Cottonwood School", "street": "", "city": "Hemet", "state": "CA", "zip": "", "full-address": ", Hemet, CA, ", "ig-handle": "", "twitter": "", "phone": "", "website": "https://www.hemetusd.org/apps/pages/index.jsp?uREC_ID=1695685&type=d&pREC_ID=1856039", "email": ""}}, {"type": "Feature", "geometry": {"type": "Point", "coordinates": [-116.9719684, 33.7475203]}, "properties": {"hours": "T, W, F 1100 - 1200 // March 16-April 30", "notes": "children must be present; must be 18 years or younger", "district": "Hemet", "name": "Fruitvale Elementary", "street": "", "city": "Hemet", "state": "CA", "zip": "", "full-address": ", Hemet, CA, ", "ig-handle": "", "twitter": "", "phone": "", "website": "https://www.hemetusd.org/apps/pages/index.jsp?uREC_ID=1695685&type=d&pREC_ID=1856039", "email": ""}}, {"type": "Feature", "geometry": {"type": "Point", "coordinates": [-116.9719684, 33.7475203]}, "properties": {"hours": "T, W, F 1100 - 1200 // March 16-April 30", "notes": "children must be present; must be 18 years or younger", "district": "Hemet", "name": "Hamilton TK-8", "street": "", "city": "Hemet", "state": "CA", "zip": "", "full-address": ", Hemet, CA, ", "ig-handle": "", "twitter": "", "phone": "", "website": "https://www.hemetusd.org/apps/pages/index.jsp?uREC_ID=1695685&type=d&pREC_ID=1856039", "email": ""}}, {"type": "Feature", "geometry": {"type": "Point", "coordinates": [-116.9719684, 33.7475203]}, "properties": {"hours": "T, W, F 1100 - 1200 // March 16-April 30", "notes": "children must be present; must be 18 years or younger", "district": "Hemet", "name": "Hemet Elementary", "street": "", "city": "Hemet", "state": "CA", "zip": "", "full-address": ", Hemet, CA, ", "ig-handle": "", "twitter": "", "phone": "", "website": "https://www.hemetusd.org/apps/pages/index.jsp?uREC_ID=1695685&type=d&pREC_ID=1856039", "email": ""}}, {"type": "Feature", "geometry": {"type": "Point", "coordinates": [-116.9719684, 33.7475203]}, "properties": {"hours": "T, W, F 1100 - 1200 // March 16-April 30", "notes": "children must be present; must be 18 years or younger", "district": "Hemet", "name": "Idyllwild School", "street": "", "city": "Hemet", "state": "CA", "zip": "", "full-address": ", Hemet, CA, ", "ig-handle": "", "twitter": "", "phone": "", "website": "https://www.hemetusd.org/apps/pages/index.jsp?uREC_ID=1695685&type=d&pREC_ID=1856039", "email": ""}}, {"type": "Feature", "geometry": {"type": "Point", "coordinates": [-116.9719684, 33.7475203]}, "properties": {"hours": "T, W, F 1100 - 1200 // March 16-April 30", "notes": "children must be present; must be 18 years or younger", "district": "Hemet", "name": "Jacob Wiens Elementary", "street": "", "city": "Hemet", "state": "CA", "zip": "", "full-address": ", Hemet, CA, ", "ig-handle": "", "twitter": "", "phone": "", "website": "https://www.hemetusd.org/apps/pages/index.jsp?uREC_ID=1695685&type=d&pREC_ID=1856039", "email": ""}}, {"type": "Feature", "geometry": {"type": "Point", "coordinates": [-116.9719684, 33.7475203]}, "properties": {"hours": "T, W, F 1100 - 1200 // March 16-April 30", "notes": "children must be present; must be 18 years or younger", "district": "Hemet", "name": "Ramona Elementary", "street": "", "city": "Hemet", "state": "CA", "zip": "", "full-address": ", Hemet, CA, ", "ig-handle": "", "twitter": "", "phone": "", "website": "https://www.hemetusd.org/apps/pages/index.jsp?uREC_ID=1695685&type=d&pREC_ID=1856039", "email": ""}}, {"type": "Feature", "geometry": {"type": "Point", "coordinates": [-116.9719684, 33.7475203]}, "properties": {"hours": "T, W, F 1100 - 1200 // March 16-April 30", "notes": "children must be present; must be 18 years or younger", "district": "Hemet", "name": "Whittier Elementary", "street": "", "city": "Hemet", "state": "CA", "zip": "", "full-address": ", Hemet, CA, ", "ig-handle": "", "twitter": "", "phone": "", "website": "https://www.hemetusd.org/apps/pages/index.jsp?uREC_ID=1695685&type=d&pREC_ID=1856039", "email": ""}}, {"type": "Feature", "geometry": {"type": "Point", "coordinates": [-116.9719684, 33.7475203]}, "properties": {"hours": "T, W, F 1100 - 1200 // March 16-April 30", "notes": "children must be present; must be 18 years or younger", "district": "Hemet", "name": "Winchester Elementary ", "street": "", "city": "Hemet", "state": "CA", "zip": "", "full-address": ", Hemet, CA, ", "ig-handle": "", "twitter": "", "phone": "", "website": "https://www.hemetusd.org/apps/pages/index.jsp?uREC_ID=1695685&type=d&pREC_ID=1856039", "email": ""}}, {"type": "Feature", "geometry": {"type": "Point", "coordinates": [-116.9719684, 33.7475203]}, "properties": {"hours": "T, W, F 1100 - 1200 // March 16-April 30", "notes": "children must be present; must be 18 years or younger", "district": "Hemet", "name": "Dartmouth Middle", "street": "", "city": "Hemet", "state": "CA", "zip": "", "full-address": ", Hemet, CA, ", "ig-handle": "", "twitter": "", "phone": "", "website": "https://www.hemetusd.org/apps/pages/index.jsp?uREC_ID=1695685&type=d&pREC_ID=1856039", "email": ""}}, {"type": "Feature", "geometry": {"type": "Point", "coordinates": [-116.9719684, 33.7475203]}, "properties": {"hours": "T, W, F 1100 - 1200 // March 16-April 30", "notes": "children must be present; must be 18 years or younger", "district": "Hemet", "name": "Diadmond Valley Middle", "street": "", "city": "Hemet", "state": "CA", "zip": "", "full-address": ", Hemet, CA, ", "ig-handle": "", "twitter": "", "phone": "", "website": "https://www.hemetusd.org/apps/pages/index.jsp?uREC_ID=1695685&type=d&pREC_ID=1856039", "email": ""}}, {"type": "Feature", "geometry": {"type": "Point", "coordinates": [-116.9719684, 33.7475203]}, "properties": {"hours": "T, W, F 1100 - 1200 // March 16-April 30", "notes": "children must be present; must be 18 years or younger", "district": "Hemet", "name": "Hemet High ", "street": "", "city": "Hemet", "state": "CA", "zip": "", "full-address": ", Hemet, CA, ", "ig-handle": "", "twitter": "", "phone": "", "website": "https://www.hemetusd.org/apps/pages/index.jsp?uREC_ID=1695685&type=d&pREC_ID=1856039", "email": ""}}, {"type": "Feature", "geometry": {"type": "Point", "coordinates": [-116.9719684, 33.7475203]}, "properties": {"hours": "T, W, F 1100 - 1200 // March 16-April 30", "notes": "children must be present; must be 18 years or younger", "district": "Hemet", "name": "Tahquitz High", "street": "", "city": "Hemet", "state": "CA", "zip": "", "full-address": ", Hemet, CA, ", "ig-handle": "", "twitter": "", "phone": "", "website": "https://www.hemetusd.org/apps/pages/index.jsp?uREC_ID=1695685&type=d&pREC_ID=1856039", "email": ""}}, {"type": "Feature", "geometry": {"type": "Point", "coordinates": [-116.9719684, 33.7475203]}, "properties": {"hours": "T, W, F 1100 - 1200 // March 16-April 30", "notes": "children must be present; must be 18 years or younger", "district": "Hemet", "name": "West Valley High ", "street": "", "city": "Hemet", "state": "CA", "zip": "", "full-address": ", Hemet, CA, ", "ig-handle": "", "twitter": "", "phone": "", "website": "https://www.hemetusd.org/apps/pages/index.jsp?uREC_ID=1695685&type=d&pREC_ID=1856039", "email": ""}}, {"type": "Feature", "geometry": {"type": "Point", "coordinates": [-116.1865162, 33.6888429]}, "properties": {"hours": "10 am - 1 pm", "notes": "Breakfast and Lunch Students are required to be present and meals will only be provided to students between the ages of 1 and 18)", "district": "Coachella Valley", "name": "Cesar Chavez Elementary School", "street": "49601 Avenida de Oro", "city": "Coachella", "state": "CA", "zip": 92236, "full-address": "49601 Avenida de Oro, Coachella, CA, 92236", "ig-handle": "", "twitter": "", "phone": "", "website": "", "email": ""}}, {"type": "Feature", "geometry": {"type": "Point", "coordinates": [-116.1879878, 33.6687075]}, "properties": {"hours": "10 am - 1 pm", "notes": "Breakfast and Lunch Students are required to be present and meals will only be provided to students between the ages of 1 and 18", "district": "Coachella Valley", "name": "Peter Pendleton Elementary School", "street": "84750 Calle Rojo", "city": "Coachella", "state": "CA", "zip": 92236, "full-address": "84750 Calle Rojo, Coachella, CA, 92236", "ig-handle": "", "twitter": "", "phone": "", "website": "", "email": ""}}, {"type": "Feature", "geometry": {"type": "Point", "coordinates": [-116.158724, 33.6743468]}, "properties": {"hours": "10 am - 1 pm", "notes": "Breakfast and Lunch Students are required to be present and meals will only be provided to students between the ages of 1 and 18", "district": "Coachella Valley", "name": "Valle Del Sol Elementary School", "street": "51433 Education Way", "city": "Coachella", "state": "CA", "zip": 92236, "full-address": "51433 Education Way, Coachella, CA, 92236", "ig-handle": "", "twitter": "", "phone": "", "website": "", "email": ""}}, {"type": "Feature", "geometry": {"type": "Point", "coordinates": [-116.1784272, 33.6670264]}, "properties": {"hours": "10 am - 1 pm", "notes": "Breakfast and Lunch Students are required to be present and meals will only be provided to students between the ages of 1 and 18", "district": "Coachella Valley", "name": "Valley View Elementary School", "street": "85270 Valley Rd", "city": "Coachella", "state": "CA", "zip": 92236, "full-address": "85270 Valley Rd, Coachella, CA, 92236", "ig-handle": "", "twitter": "", "phone": "", "website": "", "email": ""}}, {"type": "Feature", "geometry": {"type": "Point", "coordinates": [-116.230108, 33.641137]}, "properties": {"hours": "10 am - 1 pm", "notes": "Breakfast and Lunch Students are required to be present and meals will only be provided to students between the ages of 1 and 18", "district": "Coachella Valley", "name": "Westside Elementary School", "street": "82225 Airport Blvd", "city": "Thermal", "state": "CA", "zip": 92274, "full-address": "82225 Airport Blvd, Thermal, CA, 92274", "ig-handle": "", "twitter": "", "phone": "", "website": "", "email": ""}}, {"type": "Feature", "geometry": {"type": "Point", "coordinates": [-116.201067, 33.647499]}, "properties": {"hours": "10 am - 1 pm", "notes": "Breakfast and Lunch Students are required to be present and meals will only be provided to students between the ages of 1 and 18", "district": "Coachella Valley", "name": "Coachella Valley High School", "street": "83800 Airport Blvd", "city": "Thermal", "state": "CA", "zip": 92274, "full-address": "83800 Airport Blvd, Thermal, CA, 92274", "ig-handle": "", "twitter": "", "phone": "", "website": "", "email": ""}}, {"type": "Feature", "geometry": {"type": "Point", "coordinates": [-116.246126, 33.6874998]}, "properties": {"hours": "10 am - 1 pm", "notes": "Breakfast and Lunch Students are required to be present and meals will only be provided to students between the ages of 1 and 18", "district": "Coachella Valley", "name": "Mountain Vista Elementary School", "street": "49750 Hjorth St", "city": "Indio", "state": "CA", "zip": 92201, "full-address": "49750 Hjorth St, Indio, CA, 92201", "ig-handle": "", "twitter": "", "phone": "", "website": "", "email": ""}}, {"type": "Feature", "geometry": {"type": "Point", "coordinates": [-116.0758581, 33.5763563]}, "properties": {"hours": "10 am - 1 pm", "notes": "Breakfast and Lunch Students are required to be present and meals will only be provided to students between the ages of 1 and 18", "district": "Coachella Valley", "name": "Mecca Elementary School", "street": "65250 Coahuilla St", "city": "Mecca", "state": "CA", "zip": "", "full-address": "65250 Coahuilla St, Mecca, CA, ", "ig-handle": "", "twitter": "", "phone": "", "website": "", "email": ""}}, {"type": "Feature", "geometry": {"type": "Point", "coordinates": [-116.1615446, 33.5693492]}, "properties": {"hours": "10 am - 1 pm", "notes": "Breakfast and Lunch Students are required to be present and meals will only be provided to students between the ages of 1 and 18", "district": "Coachella Valley", "name": "Desert Mirage High School", "street": "86150 66th Avenue", "city": "Thermal", "state": "CA", "zip": "", "full-address": "86150 66th Avenue, Thermal, CA, ", "ig-handle": "", "twitter": "", "phone": "", "website": "", "email": ""}}, {"type": "Feature", "geometry": {"type": "Point", "coordinates": [-116.1447036, 33.6398084]}, "properties": {"hours": "10 am - 1 pm", "notes": "Breakfast and Lunch Students are required to be present and meals will only be provided to students between the ages of 1 and 18", "district": "Coachella Valley", "name": "John Kelley Elementary School", "street": "87163 Center St", "city": "Thermal", "state": "CA", "zip": "", "full-address": "87163 Center St, Thermal, CA, ", "ig-handle": "", "twitter": "", "phone": "", "website": "", "email": ""}}, {"type": "Feature", "geometry": {"type": "Point", "coordinates": [-115.9562143, 33.3010483]}, "properties": {"hours": "10 am - 1 pm", "notes": "Breakfast and Lunch Students are required to be present and meals will only be provided to students between the ages of 1 and 18", "district": "Coachella Valley", "name": "West Shores High School", "street": "2381 Shore Hawk Ave", "city": "Thermal", "state": "CA", "zip": "", "full-address": "2381 Shore Hawk Ave, Thermal, CA, ", "ig-handle": "", "twitter": "", "phone": "", "website": "", "email": ""}}, {"type": "Feature", "geometry": {"type": "Point", "coordinates": [-116.175108, 33.6747136]}, "properties": {"hours": "10 am - 1 pm", "notes": "Breakfast and Lunch Students are required to be present and meals will only be provided to students between the ages of 1 and 18", "district": "Coachella Valley", "name": "Bobby Duke Middle School", "street": "85358 Bagdad Ave", "city": "Coachella", "state": "CA", "zip": "", "full-address": "85358 Bagdad Ave, Coachella, CA, ", "ig-handle": "", "twitter": "", "phone": "", "website": "", "email": ""}}, {"type": "Feature", "geometry": {"type": "Point", "coordinates": [-116.1992147, 33.67548]}, "properties": {"hours": "10 am - 1 pm", "notes": "Breakfast and Lunch Students are required to be present and meals will only be provided to students between the ages of 1 and 18", "district": "Coachella Valley", "name": "Coral Mountain Academy", "street": "51375 Van Buren St", "city": "Coachella", "state": "CA", "zip": "", "full-address": "51375 Van Buren St, Coachella, CA, ", "ig-handle": "", "twitter": "", "phone": "", "website": "", "email": ""}}, {"type": "Feature", "geometry": {"type": "Point", "coordinates": [-116.0615558, 33.5724368]}, "properties": {"hours": "10 am - 1 pm", "notes": "Breakfast and Lunch Students are required to be present and meals will only be provided to students between the ages of 1 and 18", "district": "Coachella Valley", "name": "Saul Martinez Elementary School", "street": "65705 Johnson St", "city": "Mecca", "state": "CA", "zip": "", "full-address": "65705 Johnson St, Mecca, CA, ", "ig-handle": "", "twitter": "", "phone": "", "website": "", "email": ""}}, {"type": "Feature", "geometry": {"type": "Point", "coordinates": [-115.9373464, 33.5399086]}, "properties": {"hours": "", "notes": "Breakfast and Lunch (10:00am-11:15am); Students are required to be present and meals will only be provided to students between the ages of 1 and 18; \u201ccommunity location\u201d please look for the CVUSD Bus or CVUSD Van", "district": "Coachella Valley", "name": "North Shore Park", "street": "", "city": "", "state": "CA", "zip": "", "full-address": "99480 70th Avenue", "ig-handle": "", "twitter": "", "phone": "", "website": "", "email": ""}}, {"type": "Feature", "geometry": {"type": "Point", "coordinates": [-115.9467997, 33.6608927]}, "properties": {"hours": "", "notes": "Breakfast and Lunch (11:30am-12:15pm) Students are required to be present and meals will only be provided to students between the ages of 1 and 18; \u201ccommunity location\u201d please look for the CVUSD Bus or CVUSD Van", "district": "Coachella Valley", "name": "Port and Barnacle", "street": "", "city": "", "state": "CA", "zip": "", "full-address": "CVUSD Bus stop ( Look for Bus)", "ig-handle": "", "twitter": "", "phone": "", "website": "", "email": ""}}, {"type": "Feature", "geometry": {"type": "Point", "coordinates": [-115.9467997, 33.6608927]}, "properties": {"hours": "", "notes": "Breakfast and Lunch (12:30pm-1:00pm) Students are required to be present and meals will only be provided to students between the ages of 1 and 18; \u201ccommunity location\u201d please look for the CVUSD Bus or CVUSD Van", "district": "Coachella Valley", "name": "Parkside Via Ocotillo", "street": "", "city": "", "state": "CA", "zip": "", "full-address": "CVUSD Bus stop ( Look for Bus)", "ig-handle": "", "twitter": "", "phone": "", "website": "", "email": ""}}, {"type": "Feature", "geometry": {"type": "Point", "coordinates": [-115.9467997, 33.6608927]}, "properties": {"hours": "", "notes": "Breakfast and Lunch (10:00-10:45) Students are required to be present and meals will only be provided to students between the ages of 1 and 18; \u201ccommunity location\u201d please look for the CVUSD Bus or CVUSD Van", "district": "Coachella Valley", "name": "Ave 70 La Chicanita Market", "street": "", "city": "", "state": "CA", "zip": "", "full-address": "CVUSD Bus stop ( Look for Bus)", "ig-handle": "", "twitter": "", "phone": "", "website": "", "email": ""}}, {"type": "Feature", "geometry": {"type": "Point", "coordinates": [-115.9467997, 33.6608927]}, "properties": {"hours": "", "notes": "Breakfast and Lunch (11:00am-11:45am) Students are required to be present and meals will only be provided to students between the ages of 1 and 18; \u201ccommunity location\u201d please look for the CVUSD Bus or CVUSD Van", "district": "Coachella Valley", "name": "Old Oasis School/Borrego Clinic", "street": "", "city": "", "state": "CA", "zip": "", "full-address": "CVUSD Bus stop ( Look for Bus)", "ig-handle": "", "twitter": "", "phone": "", "website": "", "email": ""}}, {"type": "Feature", "geometry": {"type": "Point", "coordinates": [-115.9467997, 33.6608927]}, "properties": {"hours": "", "notes": "Breakfast and Lunch (12:00pm-12:45pm) Students are required to be present and meals will only be provided to students between the ages of 1 and 18; \u201ccommunity location\u201d please look for the CVUSD Bus or CVUSD Van", "district": "Coachella Valley", "name": "Alamo Market Ave 81", "street": "", "city": "", "state": "CA", "zip": "", "full-address": "CVUSD Bus stop ( Look for Bus)", "ig-handle": "", "twitter": "", "phone": "", "website": "", "email": ""}}, {"type": "Feature", "geometry": {"type": "Point", "coordinates": [-115.9467997, 33.6608927]}, "properties": {"hours": "", "notes": "Breakfast and Lunch (10:00am-10:45am) Students are required to be present and meals will only be provided to students between the ages of 1 and 18; \u201ccommunity location\u201d please look for the CVUSD Bus or CVUSD Van", "district": "Coachella Valley", "name": "Mountain View Estate Oasis Garden", "street": "", "city": "", "state": "CA", "zip": "", "full-address": "CVUSD Bus stop ( Look for Bus)", "ig-handle": "", "twitter": "", "phone": "", "website": "", "email": ""}}, {"type": "Feature", "geometry": {"type": "Point", "coordinates": [-73.8524048, 40.6929914]}, "properties": {"hours": "", "notes": "Breakfast and Lunch (12:00pm-12:30pm) Students are required to be present and meals will only be provided to students between the ages of 1 and 18; \u201ccommunity location\u201d please look for the CVUSD Bus or CVUSD Van", "district": "Coachella Valley", "name": "Key-Key Tum Park", "street": "", "city": "", "state": "CA", "zip": "", "full-address": "( Look for Bus)", "ig-handle": "", "twitter": "", "phone": "", "website": "", "email": ""}}, {"type": "Feature", "geometry": {"type": "Point", "coordinates": [-94.9350929, 37.1519219]}, "properties": {"hours": "", "notes": "Breakfast and Lunch (10:00am-10:45am) Students are required to be present and meals will only be provided to students between the ages of 1 and 18; \u201ccommunity location\u201d please look for the CVUSD Bus or CVUSD Van", "district": "Coachella Valley", "name": "Torres Martinez", "street": "", "city": "", "state": "CA", "zip": "", "full-address": "66725 Martinez Rd ( Look for Van)", "ig-handle": "", "twitter": "", "phone": "", "website": "", "email": ""}}, {"type": "Feature", "geometry": {"type": "Point", "coordinates": [-115.9467997, 33.6608927]}, "properties": {"hours": "", "notes": "Breakfast and Lunch (11:00am-11:45am) Students are required to be present and meals will only be provided to students between the ages of 1 and 18; \u201ccommunity location\u201d please look for the CVUSD Bus or CVUSD Van", "district": "Coachella Valley", "name": "Lake St Anthony", "street": "", "city": "", "state": "CA", "zip": "", "full-address": "CVUSD Bus stop ( Look for Van)", "ig-handle": "", "twitter": "", "phone": "", "website": "", "email": ""}}, {"type": "Feature", "geometry": {"type": "Point", "coordinates": [-116.0398419, 33.544292]}, "properties": {"hours": "", "notes": "Breakfast and Lunch (12:00pm-12:30pm) Students are required to be present and meals will only be provided to students between the ages of 1 and 18; \u201ccommunity location\u201d please look for the CVUSD Bus or CVUSD Van", "district": "Coachella Valley", "name": "111 Parkside Old Poor Richards", "street": "", "city": "", "state": "CA", "zip": "", "full-address": "93243 Hwy 111 Mecca ( Look for Van)", "ig-handle": "", "twitter": "", "phone": "", "website": "", "email": ""}}, {"type": "Feature", "geometry": {"type": "Point", "coordinates": [-115.9467997, 33.6608927]}, "properties": {"hours": "", "notes": "Breakfast and Lunch (10:00am-10:45am) Students are required to be present and meals will only be provided to students between the ages of 1 and 18; \u201ccommunity location\u201d please look for the CVUSD Bus or CVUSD Van", "district": "Coachella Valley", "name": "Montoya Ranch(Laguna Ranch)", "street": "", "city": "", "state": "CA", "zip": "", "full-address": "CVUSD Bus stop ( Look for Bus)", "ig-handle": "", "twitter": "", "phone": "", "website": "", "email": ""}}, {"type": "Feature", "geometry": {"type": "Point", "coordinates": [-115.9467997, 33.6608927]}, "properties": {"hours": "", "notes": "Breakfast and Lunch (11:00am-11:45am) Students are required to be present and meals will only be provided to students between the ages of 1 and 18; \u201ccommunity location\u201d please look for the CVUSD Bus or CVUSD Van", "district": "Coachella Valley", "name": "Los Heros 2,Heros 3 .Gardenia Ct.", "street": "", "city": "", "state": "CA", "zip": "", "full-address": "CVUSD Bus stop ( Look for Bus)", "ig-handle": "", "twitter": "", "phone": "", "website": "", "email": ""}}, {"type": "Feature", "geometry": {"type": "Point", "coordinates": [-115.9467997, 33.6608927]}, "properties": {"hours": "", "notes": "Breakfast and Lunch (12:00pm-12:30pm) Students are required to be present and meals will only be provided to students between the ages of 1 and 18; \u201ccommunity location\u201d please look for the CVUSD Bus or CVUSD Van", "district": "Coachella Valley", "name": "Los Heros 1,Chapultepec Apts.", "street": "", "city": "", "state": "CA", "zip": "", "full-address": "CVUSD Bus stop ( Look for Bus)", "ig-handle": "", "twitter": "", "phone": "", "website": "", "email": ""}}, {"type": "Feature", "geometry": {"type": "Point", "coordinates": [-115.9467997, 33.6608927]}, "properties": {"hours": "", "notes": "Breakfast and Lunch (10:00am-10:30am) Students are required to be present and meals will only be provided to students between the ages of 1 and 18; \u201ccommunity location\u201d please look for the CVUSD Bus or CVUSD Van", "district": "Coachella Valley", "name": "Salton City", "street": "", "city": "", "state": "CA", "zip": "", "full-address": "C CVUSD Bus stop ( Look for Bus)", "ig-handle": "", "twitter": "", "phone": "", "website": "", "email": ""}}, {"type": "Feature", "geometry": {"type": "Point", "coordinates": [-115.9467997, 33.6608927]}, "properties": {"hours": "", "notes": "Breakfast and Lunch (10:45am-11:15am) Students are required to be present and meals will only be provided to students between the ages of 1 and 18; \u201ccommunity location\u201d please look for the CVUSD Bus or CVUSD Van", "district": "Coachella Valley", "name": "N Nile and Cerritos", "street": "", "city": "", "state": "CA", "zip": "", "full-address": "CVUSD Bus stop ( Look for Bus)", "ig-handle": "", "twitter": "", "phone": "", "website": "", "email": ""}}, {"type": "Feature", "geometry": {"type": "Point", "coordinates": [-115.9467997, 33.6608927]}, "properties": {"hours": "", "notes": "Breakfast and Lunch (12:15pm-1:00pm) Students are required to be present and meals will only be provided to students between the ages of 1 and 18; \u201ccommunity location\u201d please look for the CVUSD Bus or CVUSD Van", "district": "Coachella Valley", "name": "Santa Rosa and Imperial Ave", "street": "", "city": "", "state": "CA", "zip": "", "full-address": "CVUSD Bus stop ( Look for Bus)", "ig-handle": "", "twitter": "", "phone": "", "website": "", "email": ""}}, {"type": "Feature", "geometry": {"type": "Point", "coordinates": [-115.9467997, 33.6608927]}, "properties": {"hours": "", "notes": "Breakfast and Lunch (10:00am-10:45am) Students are required to be present and meals will only be provided to students between the ages of 1 and 18; \u201ccommunity location\u201d please look for the CVUSD Bus or CVUSD Van", "district": "Coachella Valley", "name": "Berring and Cerritos", "street": "", "city": "", "state": "CA", "zip": "", "full-address": "CVUSD Bus stop ( Look for Bus)", "ig-handle": "", "twitter": "", "phone": "", "website": "", "email": ""}}, {"type": "Feature", "geometry": {"type": "Point", "coordinates": [-115.9467997, 33.6608927]}, "properties": {"hours": "", "notes": "Breakfast and Lunch (11:20am-12:00pm) Students are required to be present and meals will only be provided to students between the ages of 1 and 18; \u201ccommunity location\u201d please look for the CVUSD Bus or CVUSD Van", "district": "Coachella Valley", "name": "Mountain View and Monterey", "street": "", "city": "", "state": "CA", "zip": "", "full-address": "CVUSD Bus stop ( Look for Bus)", "ig-handle": "", "twitter": "", "phone": "", "website": "", "email": ""}}, {"type": "Feature", "geometry": {"type": "Point", "coordinates": [-115.9467997, 33.6608927]}, "properties": {"hours": "", "notes": "Breakfast and Lunch (12:10pm-12:25pm) Students are required to be present and meals will only be provided to students between the ages of 1 and 18; \u201ccommunity location\u201d please look for the CVUSD Bus or CVUSD Van", "district": "Coachella Valley", "name": "S Silver Sands RV park", "street": "", "city": "", "state": "CA", "zip": "", "full-address": "C CVUSD Bus stop ( Look for Bus)", "ig-handle": "", "twitter": "", "phone": "", "website": "", "email": ""}}, {"type": "Feature", "geometry": {"type": "Point", "coordinates": [-117.381172, 34.0713926]}, "properties": {"hours": "10am - 1pm", "notes": "Breakfast and Lunch; Need to be 18 or younger", "district": "Colton Joint", "name": "Joe Baca Middle School", "street": "1640 S. Lilac Ave.", "city": "Bloomington", "state": "CA", "zip": 92316, "full-address": "1640 S. Lilac Ave., Bloomington, CA, 92316", "ig-handle": "", "twitter": "", "phone": "", "website": "", "email": ""}}, {"type": "Feature", "geometry": {"type": "Point", "coordinates": [-117.4143223, 34.0577941]}, "properties": {"hours": "10am - 1pm", "notes": "Breakfast and Lunch; Need to be 18 or younger", "district": "Colton Joint", "name": "Bloomington High School ", "street": "10750 Laurel St.", "city": "Bloomington", "state": "CA", "zip": 92316, "full-address": "10750 Laurel St., Bloomington, CA, 92316", "ig-handle": "", "twitter": "", "phone": "", "website": "", "email": ""}}, {"type": "Feature", "geometry": {"type": "Point", "coordinates": [-117.3305621, 34.0772953]}, "properties": {"hours": "10am - 1pm", "notes": "Breakfast and Lunch; Need to be 18 or younger", "district": "Colton Joint", "name": "Grant Elementary", "street": "550 W. Olive St.", "city": "Colton", "state": "CA", "zip": 92324, "full-address": "550 W. Olive St., Colton, CA, 92324", "ig-handle": "", "twitter": "", "phone": "", "website": "", "email": ""}}, {"type": "Feature", "geometry": {"type": "Point", "coordinates": [-117.3282086, 34.0217176]}, "properties": {"hours": "10am - 1pm", "notes": "Breakfast and Lunch; Need to be 18 or younger", "district": "Colton Joint", "name": "Grand Terrace High School", "street": "21810 Main St.", "city": "Grand Terrace", "state": "CA", "zip": 92313, "full-address": "21810 Main St., Grand Terrace, CA, 92313", "ig-handle": "", "twitter": "", "phone": "", "website": "", "email": ""}}, {"type": "Feature", "geometry": {"type": "Point", "coordinates": [-117.3324268, 34.0551712]}, "properties": {"hours": "10am - 1pm", "notes": "Breakfast and Lunch; Need to be 18 or younger", "district": "Colton Joint", "name": "San Salvador Pre School", "street": "471 Agua Mansa", "city": "Colton", "state": "CA", "zip": 92324, "full-address": "471 Agua Mansa, Colton, CA, 92324", "ig-handle": "", "twitter": "", "phone": "", "website": "", "email": ""}}, {"type": "Feature", "geometry": {"type": "Point", "coordinates": [-117.2925254, 34.0519314999999]}, "properties": {"hours": "10am - 1pm", "notes": "Breakfast and Lunch; Need to be 18 or younger", "district": "Colton Joint", "name": "Cooley Ranch Elementary", "street": "1000 S. Cooley Dr", "city": "Colton", "state": "CA", "zip": 92324, "full-address": "1000 S. Cooley Dr, Colton, CA, 92324", "ig-handle": "", "twitter": "", "phone": "", "website": "", "email": ""}}, {"type": "Feature", "geometry": {"type": "Point", "coordinates": [-117.3257124, 34.0579893]}, "properties": {"hours": "10am - 1pm", "notes": "Breakfast and Lunch; Need to be 18 or younger", "district": "Colton Joint", "name": "Wilson Elementary", "street": "750 S 8th St", "city": "Colton", "state": "CA", "zip": 92324, "full-address": "750 S 8th St, Colton, CA, 92324", "ig-handle": "", "twitter": "", "phone": "", "website": "", "email": ""}}, {"type": "Feature", "geometry": {"type": "Point", "coordinates": [-117.310791, 34.0783675]}, "properties": {"hours": "10am - 1pm", "notes": "Breakfast and Lunch; Need to be 18 or younger", "district": "Colton Joint", "name": "Birney Elementary", "street": "1050 E Olive St", "city": "Colton", "state": "CA", "zip": 92324, "full-address": "1050 E Olive St, Colton, CA, 92324", "ig-handle": "", "twitter": "", "phone": "", "website": "", "email": ""}}, {"type": "Feature", "geometry": {"type": "Point", "coordinates": [-117.5372024, 33.9973006]}, "properties": {"hours": "11am - 1pm", "notes": "Lunch; for children 18 or younger; Parents can pickup", "district": "Jurupa Valley", "name": "Del Sol Academy ", "street": "11626 Forsythia St", "city": "Jurupa Valley", "state": "CA", "zip": 91752, "full-address": "11626 Forsythia St, Jurupa Valley, CA, 91752", "ig-handle": "", "twitter": "", "phone": "", "website": "", "email": ""}}, {"type": "Feature", "geometry": {"type": "Point", "coordinates": [-117.4891941, 34.0207862]}, "properties": {"hours": "11am - 1pm", "notes": "Lunch; for children 18 or younger; Parents can pickup", "district": "Jurupa Valley", "name": "Granite Hill Elementary ", "street": "9371 Granite Hill Dr", "city": "Riverside", "state": "CA", "zip": 92509, "full-address": "9371 Granite Hill Dr, Riverside, CA, 92509", "ig-handle": "", "twitter": "", "phone": "", "website": "", "email": ""}}, {"type": "Feature", "geometry": {"type": "Point", "coordinates": [-117.4037, 33.998126]}, "properties": {"hours": "11am - 1pm", "notes": "Lunch; for children 18 or younger; Parents can pickup", "district": "Jurupa Valley", "name": "Ina Arbuckle Elementary ", "street": "3600 Packard Ave", "city": "Riverside", "state": "CA", "zip": 92509, "full-address": "3600 Packard Ave, Riverside, CA, 92509", "ig-handle": "", "twitter": "", "phone": "", "website": "", "email": ""}}, {"type": "Feature", "geometry": {"type": "Point", "coordinates": [-117.4515942, 33.9747508]}, "properties": {"hours": "11am - 1pm", "notes": "Lunch; for children 18 or younger; Parents can pickup", "district": "Jurupa Valley", "name": "Indian Hills Elementary ", "street": "7750 Linares Ave", "city": "Riverside", "state": "CA", "zip": 92509, "full-address": "7750 Linares Ave, Riverside, CA, 92509", "ig-handle": "", "twitter": "", "phone": "", "website": "", "email": ""}}, {"type": "Feature", "geometry": {"type": "Point", "coordinates": [-117.4288281, 34.0042643]}, "properties": {"hours": "11am - 1pm", "notes": "Lunch; for children 18 or younger; Parents can pickup", "district": "Jurupa Valley", "name": "Rustic Lane Elementary ", "street": "6420 Rustic Ln", "city": "Riverside", "state": "CA", "zip": 92509, "full-address": "6420 Rustic Ln, Riverside, CA, 92509", "ig-handle": "", "twitter": "", "phone": "", "website": "", "email": ""}}, {"type": "Feature", "geometry": {"type": "Point", "coordinates": [-117.5286441, 33.9882767]}, "properties": {"hours": "11am - 1pm", "notes": "Lunch; for children 18 or younger; Parents can pickup", "district": "Jurupa Valley", "name": "Sky Country Elementary ", "street": "5520 Lucretia Ave", "city": "Mira Loma", "state": "CA", "zip": 91752, "full-address": "5520 Lucretia Ave, Mira Loma, CA, 91752", "ig-handle": "", "twitter": "", "phone": "", "website": "", "email": ""}}, {"type": "Feature", "geometry": {"type": "Point", "coordinates": [-117.4389019, 34.0154739]}, "properties": {"hours": "11am - 1pm", "notes": "Lunch; for children 18 or younger; Parents can pickup", "district": "Jurupa Valley", "name": "Sunnyslope Elementary ", "street": "7050 38th St", "city": "Riverside", "state": "CA", "zip": 92509, "full-address": "7050 38th St, Riverside, CA, 92509", "ig-handle": "", "twitter": "", "phone": "", "website": "", "email": ""}}, {"type": "Feature", "geometry": {"type": "Point", "coordinates": [-117.5173418, 33.9869954]}, "properties": {"hours": "11am - 1pm", "notes": "Lunch; for children 18 or younger; Parents can pickup", "district": "Jurupa Valley", "name": "Troth Street Elementary ", "street": "5565 Troth St", "city": "Mira Loma", "state": "CA", "zip": 91752, "full-address": "5565 Troth St, Mira Loma, CA, 91752", "ig-handle": "", "twitter": "", "phone": "", "website": "", "email": ""}}, {"type": "Feature", "geometry": {"type": "Point", "coordinates": [-117.4912386, 33.996302]}, "properties": {"hours": "11am - 1pm", "notes": "Lunch; for children 18 or younger; Parents can pickup", "district": "Jurupa Valley", "name": "Van Buren Elementary", "street": "9501 Jurupa Rd", "city": "Riverside", "state": "CA", "zip": 92509, "full-address": "9501 Jurupa Rd, Riverside, CA, 92509", "ig-handle": "", "twitter": "", "phone": "", "website": "", "email": ""}}, {"type": "Feature", "geometry": {"type": "Point", "coordinates": [-117.4739912, 34.0030468]}, "properties": {"hours": "11am - 1pm", "notes": "Lunch; for children 18 or younger; Parents can pickup", "district": "Jurupa Valley", "name": "Jurupa Middle ", "street": "8700 Galena St", "city": "Jurupa Valley", "state": "CA", "zip": 92509, "full-address": "8700 Galena St, Jurupa Valley, CA, 92509", "ig-handle": "", "twitter": "", "phone": "", "website": "", "email": ""}}, {"type": "Feature", "geometry": {"type": "Point", "coordinates": [-117.4161788, 34.0044102]}, "properties": {"hours": "11am - 1pm", "notes": "Lunch; for children 18 or younger; Parents can pickup", "district": "Jurupa Valley", "name": "Mission Middle ", "street": "5961 Mustang Ln", "city": "Jurupa Valley", "state": "CA", "zip": 92509, "full-address": "5961 Mustang Ln, Jurupa Valley, CA, 92509", "ig-handle": "", "twitter": "", "phone": "", "website": "", "email": ""}}, {"type": "Feature", "geometry": {"type": "Point", "coordinates": [-117.4505689, 34.0085635]}, "properties": {"hours": "11am - 1pm", "notes": "Lunch; for children 18 or younger; Parents can pickup", "district": "Jurupa Valley", "name": "Patriot High ", "street": "4355 Camino Real", "city": "Jurupa Valley", "state": "CA", "zip": 92509, "full-address": "4355 Camino Real, Jurupa Valley, CA, 92509", "ig-handle": "", "twitter": "", "phone": "", "website": "", "email": ""}}, {"type": "Feature", "geometry": {"type": "Point", "coordinates": [-117.3815015, 33.9711776]}, "properties": {"hours": "Tuesdays and Thursday from 1-3pm", "notes": "Parking Lot G", "district": "Riverside", "name": "Riverside Community College", "street": "4800 Magnolia Ave", "city": "Riverside", "state": "CA", "zip": 92506, "full-address": "4800 Magnolia Ave, Riverside, CA, 92506", "ig-handle": "", "twitter": "", "phone": "", "website": "", "email": ""}}, {"type": "Feature", "geometry": {"type": "Point", "coordinates": [-117.2844745, 33.8440369]}, "properties": {"hours": "11:00 am - 12:30 pm", "notes": "pick-up table will be set up as you drive through to allow someone to exit their vehicle and grab their meals", "district": "Val Verde", "name": "Tomas Rivera Middle", "street": "21675 Martin St", "city": "Perris", "state": "CA", "zip": 92570, "full-address": "21675 Martin St, Perris, CA, 92570", "ig-handle": "", "twitter": "", "phone": "", "website": "", "email": ""}}, {"type": "Feature", "geometry": {"type": "Point", "coordinates": [-117.2055425, 33.8382425]}, "properties": {"hours": "11:00 am - 12:30 pm", "notes": "pick-up table will be set up as you drive through to allow someone to exit their vehicle and grab their meals", "district": "Val Verde", "name": "May Ranch Elementary", "street": "900 E Morgan St", "city": "Perris", "state": "CA", "zip": 92571, "full-address": "900 E Morgan St, Perris, CA, 92571", "ig-handle": "", "twitter": "", "phone": "", "website": "", "email": ""}}, {"type": "Feature", "geometry": {"type": "Point", "coordinates": [-117.2236551, 33.8852935]}, "properties": {"hours": "11:00 am - 12:30 pm", "notes": "pick-up table will be set up as you drive through to allow someone to exit their vehicle and grab their meals", "district": "Val Verde", "name": "Val Verde Academy Campus", "street": "25100 Red Maple Ln", "city": "Moreno Valley", "state": "CA", "zip": 92551, "full-address": "25100 Red Maple Ln, Moreno Valley, CA, 92551", "ig-handle": "", "twitter": "", "phone": "", "website": "", "email": ""}}, {"type": "Feature", "geometry": {"type": "Point", "coordinates": [-117.2334384, 33.8911196]}, "properties": {"hours": "11:00 am - 12:30 pm", "notes": "pick-up table will be set up as you drive through to allow someone to exit their vehicle and grab their meals", "district": "Val Verde", "name": "March Middle", "street": "15800 Indian St", "city": "Moreno Valley", "state": "CA", "zip": 92551, "full-address": "15800 Indian St, Moreno Valley, CA, 92551", "ig-handle": "", "twitter": "", "phone": "", "website": "", "email": ""}}, {"type": "Feature", "geometry": {"type": "Point", "coordinates": [-117.2154025, 33.8162207]}, "properties": {"hours": "11:00 am - 12:30 pm", "notes": "pick-up table will be set up as you drive through to allow someone to exit their vehicle and grab their meals", "district": "Val Verde", "name": "Triple Crown Elementary", "street": "530 Orange Ave", "city": "Perris", "state": "CA", "zip": 92571, "full-address": "530 Orange Ave, Perris, CA, 92571", "ig-handle": "", "twitter": "", "phone": "", "website": "", "email": ""}}, {"type": "Feature", "geometry": {"type": "Point", "coordinates": [-117.1862837, 33.8311753]}, "properties": {"hours": "11:00 am - 12:30 pm", "notes": "pick-up table will be set up as you drive through to allow someone to exit their vehicle and grab their meals", "district": "Val Verde", "name": "Avalon Elementary", "street": "1815 E Rider St", "city": "Perris", "state": "CA", "zip": 92571, "full-address": "1815 E Rider St, Perris, CA, 92571", "ig-handle": "", "twitter": "", "phone": "", "website": "", "email": ""}}, {"type": "Feature", "geometry": {"type": "Point", "coordinates": [-117.2236287, 33.9022434]}, "properties": {"hours": "11:00 am - 1:00 pm", "notes": "", "district": "Moreno Valley", "name": "Armada Elementary", "street": "25201 John F. Kennedy Dr.", "city": "Moreno Valley", "state": "CA", "zip": 92551, "full-address": "25201 John F. Kennedy Dr., Moreno Valley, CA, 92551", "ig-handle": "", "twitter": "", "phone": "", "website": "", "email": ""}}, {"type": "Feature", "geometry": {"type": "Point", "coordinates": [-117.2081276, 33.9350743]}, "properties": {"hours": "", "notes": "", "district": "", "name": "Bear Valley Elementary", "street": "26125 Fir Ave", "city": "", "state": "CA", "zip": 92555, "full-address": "26125 Fir Ave, , CA, 92555", "ig-handle": "", "twitter": "", "phone": "", "website": "", "email": ""}}, {"type": "Feature", "geometry": {"type": "Point", "coordinates": [-117.2761168, 33.9476401]}, "properties": {"hours": "", "notes": "", "district": "", "name": "Box Springs Elementary", "street": "11900 Athens Dr.", "city": "", "state": "CA", "zip": 92557, "full-address": "11900 Athens Dr., , CA, 92557", "ig-handle": "", "twitter": "", "phone": "", "website": "", "email": ""}}, {"type": "Feature", "geometry": {"type": "Point", "coordinates": [-117.2173729, 33.9268639]}, "properties": {"hours": "", "notes": "", "district": "", "name": "Butterfield Elementary", "street": "13400 Kitching St.", "city": "", "state": "CA", "zip": 92553, "full-address": "13400 Kitching St., , CA, 92553", "ig-handle": "", "twitter": "", "phone": "", "website": "", "email": ""}}, {"type": "Feature", "geometry": {"type": "Point", "coordinates": [-117.2296533, 33.9068921]}, "properties": {"hours": "", "notes": "", "district": "", "name": "Chaparral Hills Elementary", "street": "24850 Delphinium Ave.", "city": "", "state": "CA", "zip": 92553, "full-address": "24850 Delphinium Ave., , CA, 92553", "ig-handle": "", "twitter": "", "phone": "", "website": "", "email": ""}}, {"type": "Feature", "geometry": {"type": "Point", "coordinates": [-117.2172178, 33.9459163]}, "properties": {"hours": "", "notes": "", "district": "", "name": "Cloverdale Elementary", "street": "12050 Kitching St.", "city": "", "state": "CA", "zip": 92557, "full-address": "12050 Kitching St., , CA, 92557", "ig-handle": "", "twitter": "", "phone": "", "website": "", "email": ""}}, {"type": "Feature", "geometry": {"type": "Point", "coordinates": [-117.2440266, 33.9230115]}, "properties": {"hours": "", "notes": "", "district": "", "name": "Creekside Elementary", "street": "13563 Heacock St.", "city": "", "state": "CA", "zip": 92553, "full-address": "13563 Heacock St., , CA, 92553", "ig-handle": "", "twitter": "", "phone": "", "website": "", "email": ""}}, {"type": "Feature", "geometry": {"type": "Point", "coordinates": [-117.2826998, 33.9318208]}, "properties": {"hours": "", "notes": "", "district": "", "name": "Edgemont Elementary", "street": "21790 Eucalyptus Ave.", "city": "", "state": "CA", "zip": 92553, "full-address": "21790 Eucalyptus Ave., , CA, 92553", "ig-handle": "", "twitter": "", "phone": "", "website": "", "email": ""}}, {"type": "Feature", "geometry": {"type": "Point", "coordinates": [-117.2162129, 33.9140334]}, "properties": {"hours": "", "notes": "", "district": "", "name": "Hendrick Ranch", "street": "25570 Brodiaea Ave.", "city": "", "state": "CA", "zip": 92553, "full-address": "25570 Brodiaea Ave., , CA, 92553", "ig-handle": "", "twitter": "", "phone": "", "website": "", "email": ""}}, {"type": "Feature", "geometry": {"type": "Point", "coordinates": [-117.267873, 33.9778462]}, "properties": {"hours": "", "notes": "", "district": "", "name": "Hidden Springs Elementary", "street": "9801 Hidden Springs Dr.", "city": "", "state": "CA", "zip": 92557, "full-address": "9801 Hidden Springs Dr., , CA, 92557", "ig-handle": "", "twitter": "", "phone": "", "website": "", "email": ""}}, {"type": "Feature", "geometry": {"type": "Point", "coordinates": [-117.2558999, 33.9504557]}, "properties": {"hours": "", "notes": "", "district": "", "name": "Honey Hollow Elementary", "street": "11765 Honey Hollow Dr.", "city": "", "state": "CA", "zip": 92557, "full-address": "11765 Honey Hollow Dr., , CA, 92557", "ig-handle": "", "twitter": "", "phone": "", "website": "", "email": ""}}, {"type": "Feature", "geometry": {"type": "Point", "coordinates": [-117.1812967, 33.9059643]}, "properties": {"hours": "", "notes": "", "district": "", "name": "La Jolla Elementary", "street": "14745 Willgrove Pl", "city": "", "state": "CA", "zip": 92555, "full-address": "14745 Willgrove Pl, , CA, 92555", "ig-handle": "", "twitter": "", "phone": "", "website": "", "email": ""}}, {"type": "Feature", "geometry": {"type": "Point", "coordinates": [-117.2391307, 33.955233]}, "properties": {"hours": "", "notes": "", "district": "", "name": "Midland Elementary", "street": "11440 Davis St.", "city": "", "state": "CA", "zip": 92557, "full-address": "11440 Davis St., , CA, 92557", "ig-handle": "", "twitter": "", "phone": "", "website": "", "email": ""}}, {"type": "Feature", "geometry": {"type": "Point", "coordinates": [-117.1972766, 33.9249831]}, "properties": {"hours": "", "notes": "", "district": "", "name": "Moreno Elementary", "street": "26700 Cottonwood Ave.", "city": "", "state": "CA", "zip": 92555, "full-address": "26700 Cottonwood Ave., , CA, 92555", "ig-handle": "", "twitter": "", "phone": "", "website": "", "email": ""}}, {"type": "Feature", "geometry": {"type": "Point", "coordinates": [-117.224728, 33.953365]}, "properties": {"hours": "", "notes": "", "district": "", "name": "North Ridge Elementary", "street": "25101 Kalmia Ave.", "city": "", "state": "CA", "zip": 92557, "full-address": "25101 Kalmia Ave., , CA, 92557", "ig-handle": "", "twitter": "", "phone": "", "website": "", "email": ""}}, {"type": "Feature", "geometry": {"type": "Point", "coordinates": [-117.2300859, 33.9204883]}, "properties": {"hours": "", "notes": "", "district": "", "name": "Ramona Elementary", "street": "24801 Bay Ave.", "city": "", "state": "CA", "zip": 92553, "full-address": "24801 Bay Ave., , CA, 92553", "ig-handle": "", "twitter": "", "phone": "", "website": "", "email": ""}}, {"type": "Feature", "geometry": {"type": "Point", "coordinates": [-117.1662067, 33.9054717]}, "properties": {"hours": "", "notes": "", "district": "", "name": "Ridge Crest Elementary", "street": "28500 John F kennedy Dr.", "city": "", "state": "CA", "zip": 92555, "full-address": "28500 John F kennedy Dr., , CA, 92555", "ig-handle": "", "twitter": "", "phone": "", "website": "", "email": ""}}, {"type": "Feature", "geometry": {"type": "Point", "coordinates": [-117.2955825, 33.9517778]}, "properties": {"hours": "", "notes": "", "district": "", "name": "Seneca Elementary", "street": "11615 Woodsworth Rd.", "city": "", "state": "CA", "zip": 92557, "full-address": "11615 Woodsworth Rd., , CA, 92557", "ig-handle": "", "twitter": "", "phone": "", "website": "", "email": ""}}, {"type": "Feature", "geometry": {"type": "Point", "coordinates": [-117.241769, 33.9068193]}, "properties": {"hours": "", "notes": "", "district": "", "name": "Serrano Elementary", "street": "24100 Delphinium Ave.", "city": "", "state": "CA", "zip": 92553, "full-address": "24100 Delphinium Ave., , CA, 92553", "ig-handle": "", "twitter": "", "phone": "", "website": "", "email": ""}}, {"type": "Feature", "geometry": {"type": "Point", "coordinates": [-117.2376637, 33.9662354]}, "properties": {"hours": "", "notes": "", "district": "", "name": "Sugar Hill Elementary", "street": "24555 Old Country Rd.", "city": "", "state": "CA", "zip": 92557, "full-address": "24555 Old Country Rd., , CA, 92557", "ig-handle": "", "twitter": "", "phone": "", "website": "", "email": ""}}, {"type": "Feature", "geometry": {"type": "Point", "coordinates": [-117.2421206, 33.9287486]}, "properties": {"hours": "", "notes": "", "district": "", "name": "Sunnymead Elementary", "street": "24050 Dracaea Ave.", "city": "", "state": "CA", "zip": 92553, "full-address": "24050 Dracaea Ave., , CA, 92553", "ig-handle": "", "twitter": "", "phone": "", "website": "", "email": ""}}, {"type": "Feature", "geometry": {"type": "Point", "coordinates": [-117.256887, 33.9327518]}, "properties": {"hours": "", "notes": "", "district": "", "name": "Sunnymeadows Elementary", "street": "23200 Eucalyptus Ave.", "city": "", "state": "CA", "zip": 92553, "full-address": "23200 Eucalyptus Ave., , CA, 92553", "ig-handle": "", "twitter": "", "phone": "", "website": "", "email": ""}}, {"type": "Feature", "geometry": {"type": "Point", "coordinates": [-117.2715999, 33.9285741]}, "properties": {"hours": "", "notes": "", "district": "", "name": "Towngate Elementary", "street": "22480 Dracaea Ave.", "city": "", "state": "CA", "zip": 92553, "full-address": "22480 Dracaea Ave., , CA, 92553", "ig-handle": "", "twitter": "", "phone": "", "website": "", "email": ""}}, {"type": "Feature", "geometry": {"type": "Point", "coordinates": [-117.2338602, 33.9064375]}, "properties": {"hours": "", "notes": "", "district": "", "name": "Badger Springs Middle", "street": "24570 Delphinium Ave.", "city": "", "state": "CA", "zip": 92553, "full-address": "24570 Delphinium Ave., , CA, 92553", "ig-handle": "", "twitter": "", "phone": "", "website": "", "email": ""}}, {"type": "Feature", "geometry": {"type": "Point", "coordinates": [-117.1811129, 33.9003598]}, "properties": {"hours": "", "notes": "", "district": "", "name": "Landmark Elementary", "street": "15261 Legendary Dr.", "city": "", "state": "CA", "zip": 92555, "full-address": "15261 Legendary Dr., , CA, 92555", "ig-handle": "", "twitter": "", "phone": "", "website": "", "email": ""}}], "name": "schools"}