{"type": "FeatureCollection", "features": [{"type": "Feature", "geometry": {"type": "Point", "coordinates": [-117.2145127, 34.1380276]}, "properties": {"hours": "Daily lunch program; 12pm", "notes": "Also have food distribution on M/W/F - need to call first", "name": "Highland Senior Center", "street": "3102 E. Highland Ave.", "city": "Patton", "state": "CA", "zip": "92369", "full-address": "3102 E. Highland Ave., Patton, CA, 92369", "ig-handle": "", "twitter": "", "facebook": "", "phone": "(909) 862-8104", "website": "http://www.highlandseniorcenter.com/", "email": ""}}, {"type": "Feature", "geometry": {"type": "Point", "coordinates": [-117.6928913, 34.0737139]}, "properties": {"hours": "Daily lunch program; 11:30-12:30pm", "notes": "", "name": "Montclair Community Center", "street": "5111 Benito St", "city": "Montclair", "state": "CA", "zip": "91763", "full-address": "5111 Benito St, Montclair, CA, 91763", "ig-handle": "", "twitter": "", "facebook": "", "phone": "(909) 625-9479", "website": "https://www.cityofmontclair.org/city-government/human-services/recreation-activities-and-classes", "email": ""}}, {"type": "Feature", "geometry": {"type": "Point", "coordinates": [-117.1469259, 33.4943342]}, "properties": {"hours": "Friday, 11:30-12:30PM", "notes": "Lunch program; call first to reserve meal", "name": "Mary Phillips Senior Center", "street": "41000 Main Street", "city": "Temecula", "state": "CA", "zip": "92590", "full-address": "41000 Main Street, Temecula, CA, 92590", "ig-handle": "", "twitter": "", "facebook": "", "phone": "(951) 694-6464", "website": "https://temeculaca.gov/487/Daily-Nutrition-Program-for-Seniors", "email": ""}}, {"type": "Feature", "geometry": {"type": "Point", "coordinates": [-117.4177486, 33.9503363]}, "properties": {"hours": "Friday, 11:30-12:30PM", "notes": "Must be 60+ to apply. Can be picked up by Proxy (need to show senior ID)", "name": "Janet Goske Senior Center", "street": "5257 Sierra St.", "city": "Riverside", "state": "CA", "zip": "92504", "full-address": "5257 Sierra St., Riverside, CA, 92504", "ig-handle": "", "twitter": "", "facebook": "https://www.facebook.com/CityofRiverside.ParksandRecreation/photos/a.10152021780136759/10156821460276759/?type=3&theater", "phone": "9513518800", "website": "", "email": ""}}, {"type": "Feature", "geometry": {"type": "Point", "coordinates": [-116.053995, 34.1348045]}, "properties": {"hours": "11:30-\n12:30", "notes": "M-F", "name": "29 Palms Senior Center", "street": "6539 Adobe Road", "city": "29 Palms", "state": "CA", "zip": "", "full-address": "6539 Adobe Road, 29 Palms, CA,", "ig-handle": "", "twitter": "", "facebook": "", "phone": "(951) 342-3057", "website": "", "email": ""}}, {"type": "Feature", "geometry": {"type": "Point", "coordinates": [-117.2969108, 34.1086098]}, "properties": {"hours": "11:30-12:30", "notes": "M-F", "name": "5th Street Senior Center", "street": "600 West 5th Street", "city": "San Bernardino", "state": "CA", "zip": "", "full-address": "600 West 5th Street, San Bernardino, CA,", "ig-handle": "", "twitter": "", "facebook": "", "phone": "(909) 384-5430", "website": "", "email": ""}}, {"type": "Feature", "geometry": {"type": "Point", "coordinates": [-117.4143206, 34.5737019]}, "properties": {"hours": "11:30-12:30", "notes": "M-F", "name": "Adelanto Senior Center", "street": "11585 Cortez St.", "city": "Adelanto", "state": "CA", "zip": "", "full-address": "11585 Cortez St., Adelanto, CA,", "ig-handle": "", "twitter": "", "facebook": "", "phone": "(760) 605-0549", "website": "", "email": ""}}, {"type": "Feature", "geometry": {"type": "Point", "coordinates": [-117.0167429, 34.8941179]}, "properties": {"hours": "11:30-12:30", "notes": "M-F", "name": "Barstow Senior Citizens Center", "street": "555 Melissa Ave", "city": "Barstow", "state": "CA", "zip": "", "full-address": "555 Melissa Ave, Barstow, CA,", "ig-handle": "", "twitter": "", "facebook": "", "phone": "(760) 256-9111", "website": "", "email": ""}}, {"type": "Feature", "geometry": {"type": "Point", "coordinates": [-116.8727674, 34.25913]}, "properties": {"hours": "12:00-\n1:30", "notes": "M-Tu-F", "name": "Big Bear Senior Center", "street": "42651 Big Bear Blvd", "city": "Big Bear", "state": "CA", "zip": "", "full-address": "42651 Big Bear Blvd, Big Bear, CA,", "ig-handle": "", "twitter": "", "facebook": "", "phone": "(909) 584-0323", "website": "", "email": ""}}, {"type": "Feature", "geometry": {"type": "Point", "coordinates": [-117.4049205, 34.0697854]}, "properties": {"hours": "11:30-\n12:30", "notes": "M-F", "name": "Bloomington Senior Nutrition Center", "street": "18317 Valley Blvd", "city": "Bloomington", "state": "CA", "zip": "", "full-address": "18317 Valley Blvd, Bloomington, CA,", "ig-handle": "", "twitter": "", "facebook": "", "phone": "(909) 546-1399", "website": "", "email": ""}}, {"type": "Feature", "geometry": {"type": "Point", "coordinates": [-114.3932638, 34.1288295]}, "properties": {"hours": "11:30-\n12:00", "notes": "M-F", "name": "Bonnie Baker Senior Center", "street": "149350 Ukiah Trail", "city": "Big River", "state": "CA", "zip": "", "full-address": "149350 Ukiah Trail, Big River, CA,", "ig-handle": "", "twitter": "", "facebook": "", "phone": "(760) 665-2667", "website": "", "email": ""}}, {"type": "Feature", "geometry": {"type": "Point", "coordinates": [-117.1733483, 34.0519956]}, "properties": {"hours": "11:30-\n12:30", "notes": "M-F", "name": "Casa de la Vista Senior Apartments", "street": "686 E. Redlands Blvd", "city": "Redlands", "state": "CA", "zip": "", "full-address": "686 E. Redlands Blvd, Redlands, CA,", "ig-handle": "", "twitter": "", "facebook": "", "phone": "(951) 342-3057", "website": "", "email": ""}}, {"type": "Feature", "geometry": {"type": "Point", "coordinates": [-117.6897812, 34.0143993]}, "properties": {"hours": "11:30-\n12:30", "notes": "M-F", "name": "Chino Senior Center", "street": "13170 Central Ave", "city": "Chino", "state": "CA", "zip": "", "full-address": "13170 Central Ave, Chino, CA,", "ig-handle": "", "twitter": "", "facebook": "", "phone": "(909) 334-3453", "website": "", "email": ""}}, {"type": "Feature", "geometry": {"type": "Point", "coordinates": [-117.6928913, 34.0737139]}, "properties": {"hours": "11:30-\n1:00", "notes": "M-F", "name": "City of Montclair Senior Center", "street": "5111 Benito Street", "city": "Montclair", "state": "CA", "zip": "", "full-address": "5111 Benito Street, Montclair, CA,", "ig-handle": "", "twitter": "", "facebook": "", "phone": "(909) 625-9483", "website": "", "email": ""}}, {"type": "Feature", "geometry": {"type": "Point", "coordinates": [-117.3277191, 34.1447074]}, "properties": {"hours": "11:30-\n12:30", "notes": "M-F", "name": "Delmann Heights Community Center", "street": "2969 North Flores", "city": "San Bernardino", "state": "CA", "zip": "", "full-address": "2969 North Flores, San Bernardino, CA,", "ig-handle": "", "twitter": "", "facebook": "", "phone": "(951) 342-3057", "website": "", "email": ""}}, {"type": "Feature", "geometry": {"type": "Point", "coordinates": [-117.3697344, 34.0754056]}, "properties": {"hours": "11:30-\n12:30", "notes": "M-F", "name": "Grace Vargas Senior Center (Rialto Senior Center)", "street": "1411 S. Riverside Ave", "city": "Rialto", "state": "CA", "zip": "", "full-address": "1411 S. Riverside Ave, Rialto, CA,", "ig-handle": "", "twitter": "", "facebook": "", "phone": "(909) 877-9706", "website": "", "email": ""}}, {"type": "Feature", "geometry": {"type": "Point", "coordinates": [-117.3104128, 34.041872]}, "properties": {"hours": "11:30-\n12:30", "notes": "M-F", "name": "Grand Terrace Senior Center", "street": "22627 Grand Terrace Rd", "city": "Grand Terrace", "state": "CA", "zip": "", "full-address": "22627 Grand Terrace Rd, Grand Terrace, CA,", "ig-handle": "", "twitter": "", "facebook": "", "phone": "(951) 342-3057", "website": "", "email": ""}}, {"type": "Feature", "geometry": {"type": "Point", "coordinates": [-117.2145127, 34.1380276]}, "properties": {"hours": "12:00-\n1:00", "notes": "M-F", "name": "Highland Senior Center", "street": "3102 E Highland Ave", "city": "Highland", "state": "CA", "zip": "", "full-address": "3102 E Highland Ave, Highland, CA,", "ig-handle": "", "twitter": "", "facebook": "", "phone": "(909) 862-8104", "website": "", "email": ""}}, {"type": "Feature", "geometry": {"type": "Point", "coordinates": [-116.3064471, 34.1404784]}, "properties": {"hours": "11:30-\n12:30", "notes": "M-F", "name": "Joshua Tree Community Center", "street": "6171 Sunburst Ave", "city": "Joshua Tree", "state": "CA", "zip": "", "full-address": "6171 Sunburst Ave, Joshua Tree, CA,", "ig-handle": "", "twitter": "", "facebook": "", "phone": "(951) 342-3057", "website": "", "email": ""}}, {"type": "Feature", "geometry": {"type": "Point", "coordinates": [-117.3165386, 34.0711522]}, "properties": {"hours": "11:30-\n12:30", "notes": "M-F", "name": "Larry Hutton Center", "street": "660 Colton Ave", "city": "Colton", "state": "CA", "zip": "", "full-address": "660 Colton Ave, Colton, CA,", "ig-handle": "", "twitter": "", "facebook": "", "phone": "(909) 370-6168", "website": "", "email": ""}}, {"type": "Feature", "geometry": {"type": "Point", "coordinates": [-117.2459789, 34.0470981]}, "properties": {"hours": "11:30-\n12:30", "notes": "T, W, Th only", "name": "Loma Linda Nutrition Site", "street": "25571 Barton Rd", "city": "Loma Linda", "state": "CA", "zip": "", "full-address": "25571 Barton Rd, Loma Linda, CA,", "ig-handle": "", "twitter": "", "facebook": "", "phone": "(909) 799-2820", "website": "", "email": ""}}, {"type": "Feature", "geometry": {"type": "Point", "coordinates": [-116.9410615, 34.4427658]}, "properties": {"hours": "11:30-\n12:30", "notes": "M-F", "name": "Lucerne Valley Senior Club", "street": "10431 Allen Way", "city": "Lucerne Valley", "state": "CA", "zip": "", "full-address": "10431 Allen Way, Lucerne Valley, CA,", "ig-handle": "", "twitter": "", "facebook": "", "phone": "(760) 248-2248", "website": "", "email": ""}}, {"type": "Feature", "geometry": {"type": "Point", "coordinates": [-117.3078468, 34.094465]}, "properties": {"hours": "12:00-\n1:00", "notes": "M-Th", "name": "Lytle Creek Community Center", "street": "380 South \"K\" St", "city": "San Bernardino", "state": "CA", "zip": "", "full-address": "380 South \"K\" St, San Bernardino, CA,", "ig-handle": "", "twitter": "", "facebook": "", "phone": "(909) 384-5424", "website": "", "email": ""}}, {"type": "Feature", "geometry": {"type": "Point", "coordinates": [-117.4395332, 34.0733344]}, "properties": {"hours": "11:30-\n12:30", "notes": "M-F", "name": "Marygold (Dino Papavera) Site", "street": "16707 Marygold Ave", "city": "Fontana", "state": "CA", "zip": "", "full-address": "16707 Marygold Ave, Fontana, CA,", "ig-handle": "", "twitter": "", "facebook": "", "phone": "(909) 350-0575", "website": "", "email": ""}}, {"type": "Feature", "geometry": {"type": "Point", "coordinates": [-117.1341502, 34.0709331]}, "properties": {"hours": "8:00 a.m.", "notes": "T only", "name": "Mentone Senior Center", "street": "1331 Opal Ave", "city": "Mentone", "state": "CA", "zip": "", "full-address": "1331 Opal Ave, Mentone, CA,", "ig-handle": "", "twitter": "", "facebook": "", "phone": "(909) 794-5280", "website": "", "email": ""}}, {"type": "Feature", "geometry": {"type": "Point", "coordinates": [-114.6174805, 34.8295363999999]}, "properties": {"hours": "11:30-\n12:30", "notes": "M-F", "name": "Needles Senior Center", "street": "1699 Bailey Street", "city": "Needles", "state": "CA", "zip": "", "full-address": "1699 Bailey Street, Needles, CA,", "ig-handle": "", "twitter": "", "facebook": "", "phone": "(760) 326-2898", "website": "", "email": ""}}, {"type": "Feature", "geometry": {"type": "Point", "coordinates": [-117.3185836, 34.1354305]}, "properties": {"hours": "11:30-\n12:30", "notes": "M-Th", "name": "New Hope Family Center", "street": "1505 West Highland", "city": "San Bernardino", "state": "CA", "zip": "", "full-address": "1505 West Highland, San Bernardino, CA,", "ig-handle": "", "twitter": "", "facebook": "", "phone": "(909) 473-9120", "website": "", "email": ""}}, {"type": "Feature", "geometry": {"type": "Point", "coordinates": [-117.4365046, 34.0980275]}, "properties": {"hours": "11:30-\n12:30", "notes": "M-F", "name": "Nuevo/George White Site", "street": "8565 Nuevo", "city": "Fontana", "state": "CA", "zip": "", "full-address": "8565 Nuevo, Fontana, CA,", "ig-handle": "", "twitter": "", "facebook": "", "phone": "(909) 822-4493", "website": "", "email": ""}}, {"type": "Feature", "geometry": {"type": "Point", "coordinates": [-117.6487098, 34.0655099]}, "properties": {"hours": "11:30-\n12:30", "notes": "M-F", "name": "Ontario Multipurpose Center", "street": "225 East B Street", "city": "Ontario", "state": "CA", "zip": "", "full-address": "225 East B Street, Ontario, CA,", "ig-handle": "", "twitter": "", "facebook": "", "phone": "(909) 395-2021", "website": "", "email": ""}}, {"type": "Feature", "geometry": {"type": "Point", "coordinates": [-117.292135, 34.4190235]}, "properties": {"hours": "11:30-\n12:30", "notes": "M-F", "name": "Percy Bakker Senior Center", "street": "9333 E Street", "city": "Hesperia", "state": "CA", "zip": "", "full-address": "9333 E Street, Hesperia, CA,", "ig-handle": "", "twitter": "", "facebook": "", "phone": "N/A", "website": "", "email": ""}}, {"type": "Feature", "geometry": {"type": "Point", "coordinates": [-117.2708724, 34.1342767]}, "properties": {"hours": "11:30-\n12:30", "notes": "M-F", "name": "Perris Hill Senior Center", "street": "780 East 21st Street", "city": "San Bernardino", "state": "CA", "zip": "", "full-address": "780 East 21st Street, San Bernardino, CA,", "ig-handle": "", "twitter": "", "facebook": "", "phone": "(909) 384-5436", "website": "", "email": ""}}, {"type": "Feature", "geometry": {"type": "Point", "coordinates": [-117.5606671, 34.1227652]}, "properties": {"hours": "11:30-\n12:30", "notes": "M-F", "name": "Rancho Cucamonga Brulte Senior Center", "street": "11200 Baseline Road", "city": "Rancho Cucamonga", "state": "CA", "zip": "", "full-address": "11200 Baseline Road, Rancho Cucamonga, CA,", "ig-handle": "", "twitter": "", "facebook": "", "phone": "(909) 477-2780", "website": "", "email": ""}}, {"type": "Feature", "geometry": {"type": "Point", "coordinates": [-117.1840743, 34.0693666]}, "properties": {"hours": "11:30-\n12:30", "notes": "M-F", "name": "Redlands Community Center", "street": "111-A West Lugonia", "city": "Redlands", "state": "CA", "zip": "", "full-address": "111-A West Lugonia, Redlands, CA,", "ig-handle": "", "twitter": "", "facebook": "", "phone": "(951) 342-3057", "website": "", "email": ""}}, {"type": "Feature", "geometry": {"type": "Point", "coordinates": [-117.2845579, 34.103321]}, "properties": {"hours": "12:00-\n1:00", "notes": "M-Th", "name": "Rudy Hernandez Community Center", "street": "222 North Lugo Ave", "city": "San Bernardino", "state": "CA", "zip": "", "full-address": "222 North Lugo Ave, San Bernardino, CA,", "ig-handle": "", "twitter": "", "facebook": "", "phone": "(909) 384-5420", "website": "", "email": ""}}, {"type": "Feature", "geometry": {"type": "Point", "coordinates": [-117.2660206, 34.2390808]}, "properties": {"hours": "12:00-\n1:00", "notes": "T and 2nd & 4th Th", "name": "San Moritz Lodge", "street": "24640 San Moritz Drive", "city": "Crestline", "state": "CA", "zip": "", "full-address": "24640 San Moritz Drive, Crestline, CA,", "ig-handle": "", "twitter": "", "facebook": "", "phone": "(909) 338-5036", "website": "", "email": ""}}, {"type": "Feature", "geometry": {"type": "Point", "coordinates": [-117.6463721, 34.0969603]}, "properties": {"hours": "11:30-\n12:30", "notes": "M-F", "name": "Upland Gibson Senior Center", "street": "250 N. 3rd Street", "city": "Upland", "state": "CA", "zip": "", "full-address": "250 N. 3rd Street, Upland, CA,", "ig-handle": "", "twitter": "", "facebook": "", "phone": "(909) 981-4501", "website": "", "email": ""}}, {"type": "Feature", "geometry": {"type": "Point", "coordinates": [-117.2999874, 34.521047]}, "properties": {"hours": "11:30-\n12:30", "notes": "M-F", "name": "Victorville Senior Center", "street": "14874 South Mojave Dr.", "city": "Victorville", "state": "CA", "zip": "", "full-address": "14874 South Mojave Dr., Victorville, CA,", "ig-handle": "", "twitter": "", "facebook": "", "phone": "(760) 245-5018", "website": "", "email": ""}}, {"type": "Feature", "geometry": {"type": "Point", "coordinates": [-117.0413883, 34.0320846]}, "properties": {"hours": "11:30-\n12:30", "notes": "M-F", "name": "Yucaipa Scherer Senior Center", "street": "12202 First Street", "city": "Yucaipa", "state": "CA", "zip": "", "full-address": "12202 First Street, Yucaipa, CA,", "ig-handle": "", "twitter": "", "facebook": "", "phone": "(951) 342-3057", "website": "", "email": ""}}, {"type": "Feature", "geometry": {"type": "Point", "coordinates": [-116.4198311, 34.1238698]}, "properties": {"hours": "11:30-\n12:30", "notes": "M-F", "name": "Yucca Valley Nutrition for Seniors", "street": "57088 29 Palms Hwy", "city": "Yucca Valley", "state": "CA", "zip": "", "full-address": "57088 29 Palms Hwy, Yucca Valley, CA,", "ig-handle": "", "twitter": "", "facebook": "", "phone": "(951) 342-3057", "website": "", "email": ""}}, {"type": "Feature", "geometry": {"type": "Point", "coordinates": [-117.409215, 34.5827699]}, "properties": {"hours": "", "notes": "home delivered meal providers", "name": "Barstow Senior Citizens Center", "street": "", "city": "Adelanto", "state": "CA", "zip": "", "full-address": ", Adelanto, CA,", "ig-handle": "", "twitter": "", "facebook": "", "phone": "(760) 256-9111", "website": "", "email": ""}}, {"type": "Feature", "geometry": {"type": "Point", "coordinates": [-117.1858759, 34.5008311]}, "properties": {"hours": "", "notes": "home delivered meal providers", "name": "Barstow Senior Citizens Center", "street": "", "city": "Apple Valley", "state": "CA", "zip": "", "full-address": ", Apple Valley, CA,", "ig-handle": "", "twitter": "", "facebook": "", "phone": "(760) 256-9111", "website": "", "email": ""}}, {"type": "Feature", "geometry": {"type": "Point", "coordinates": [-117.45028, 34.45917]}, "properties": {"hours": "", "notes": "home delivered meal providers", "name": "Barstow Senior Citizens Center", "street": "", "city": "Baldy Mesa", "state": "CA", "zip": "", "full-address": ", Baldy Mesa, CA,", "ig-handle": "", "twitter": "", "facebook": "", "phone": "(760) 256-9111", "website": "", "email": ""}}, {"type": "Feature", "geometry": {"type": "Point", "coordinates": [-117.0172826, 34.8957957]}, "properties": {"hours": "", "notes": "home delivered meal providers", "name": "Barstow Senior Citizens Center", "street": "", "city": "Barstow", "state": "CA", "zip": "", "full-address": ", Barstow, CA,", "ig-handle": "", "twitter": "", "facebook": "", "phone": "(760) 256-9111", "website": "", "email": ""}}, {"type": "Feature", "geometry": {"type": "Point", "coordinates": [-117.3008784, 34.4263886]}, "properties": {"hours": "", "notes": "home delivered meal providers", "name": "Barstow Senior Citizens Center", "street": "", "city": "Hesperia", "state": "CA", "zip": "", "full-address": ", Hesperia, CA,", "ig-handle": "", "twitter": "", "facebook": "", "phone": "(760) 256-9111", "website": "", "email": ""}}, {"type": "Feature", "geometry": {"type": "Point", "coordinates": [-117.1993469, 34.9344769]}, "properties": {"hours": "", "notes": "home delivered meal providers", "name": "Barstow Senior Citizens Center", "street": "", "city": "Hinkley", "state": "CA", "zip": "", "full-address": ", Hinkley, CA,", "ig-handle": "", "twitter": "", "facebook": "", "phone": "(760) 256-9111", "website": "", "email": ""}}, {"type": "Feature", "geometry": {"type": "Point", "coordinates": [-117.3342743, 34.598816]}, "properties": {"hours": "", "notes": "home delivered meal providers", "name": "Barstow Senior Citizens Center", "street": "", "city": "Oro Grande", "state": "CA", "zip": "", "full-address": ", Oro Grande, CA,", "ig-handle": "", "twitter": "", "facebook": "", "phone": "(760) 256-9111", "website": "", "email": ""}}, {"type": "Feature", "geometry": {"type": "Point", "coordinates": [-117.5725628, 34.426288]}, "properties": {"hours": "", "notes": "home delivered meal providers", "name": "Barstow Senior Citizens Center", "street": "", "city": "Phelan", "state": "CA", "zip": "", "full-address": ", Phelan, CA,", "ig-handle": "", "twitter": "", "facebook": "", "phone": "(760) 256-9111", "website": "", "email": ""}}, {"type": "Feature", "geometry": {"type": "Point", "coordinates": [-117.6467917, 34.433237]}, "properties": {"hours": "", "notes": "home delivered meal providers", "name": "Barstow Senior Citizens Center", "street": "", "city": "Pinon Hills", "state": "CA", "zip": "", "full-address": ", Pinon Hills, CA,", "ig-handle": "", "twitter": "", "facebook": "", "phone": "(760) 256-9111", "website": "", "email": ""}}, {"type": "Feature", "geometry": {"type": "Point", "coordinates": [-117.2927641, 34.5362184]}, "properties": {"hours": "", "notes": "home delivered meal providers", "name": "Barstow Senior Citizens Center", "street": "", "city": "VIctorville", "state": "CA", "zip": "", "full-address": ", VIctorville, CA,", "ig-handle": "", "twitter": "", "facebook": "", "phone": "(760) 256-9111", "website": "", "email": ""}}, {"type": "Feature", "geometry": {"type": "Point", "coordinates": [-114.3613425, 34.1400159]}, "properties": {"hours": "", "notes": "home delivered meal providers", "name": "Bonnie Bake Senior Citizens Club (BBSCC)", "street": "", "city": "Big River", "state": "CA", "zip": "", "full-address": ", Big River, CA,", "ig-handle": "", "twitter": "", "facebook": "", "phone": "(760) 665-2667", "website": "", "email": ""}}, {"type": "Feature", "geometry": {"type": "Point", "coordinates": [-114.6141315, 34.8480597]}, "properties": {"hours": "", "notes": "home delivered meal providers", "name": "BBSCC", "street": "", "city": "Needles", "state": "CA", "zip": "", "full-address": ", Needles, CA,", "ig-handle": "", "twitter": "", "facebook": "", "phone": "(760) 326-2898", "website": "", "email": ""}}, {"type": "Feature", "geometry": {"type": "Point", "coordinates": [-117.688944, 34.0122346]}, "properties": {"hours": "", "notes": "home delivered meal providers", "name": "Family Service Association (FSA)", "street": "", "city": "Chino", "state": "CA", "zip": "", "full-address": ", Chino, CA,", "ig-handle": "", "twitter": "", "facebook": "", "phone": "(909) 628-0071", "website": "", "email": ""}}, {"type": "Feature", "geometry": {"type": "Point", "coordinates": [-117.3136547, 34.0739016]}, "properties": {"hours": "", "notes": "home delivered meal providers", "name": "Family Service Association (FSA)", "street": "", "city": "Colton", "state": "CA", "zip": "", "full-address": ", Colton, CA,", "ig-handle": "", "twitter": "", "facebook": "", "phone": "(951) 342-3057", "website": "", "email": ""}}, {"type": "Feature", "geometry": {"type": "Point", "coordinates": [-117.5931084, 34.1063988999999]}, "properties": {"hours": "", "notes": "home delivered meal providers", "name": "Family Service Association (FSA)", "street": "", "city": "Rancho Cucamonga", "state": "CA", "zip": "", "full-address": ", Rancho Cucamonga, CA,", "ig-handle": "", "twitter": "", "facebook": "", "phone": "(909) 477-2780 Ext 8020", "website": "", "email": ""}}, {"type": "Feature", "geometry": {"type": "Point", "coordinates": [-117.3958797, 34.07029]}, "properties": {"hours": "", "notes": "home delivered meal providers", "name": "Family Service Association (FSA)", "street": "", "city": "Bloomington", "state": "CA", "zip": "", "full-address": ", Bloomington, CA,", "ig-handle": "", "twitter": "", "facebook": "", "phone": "(951) 342-3057", "website": "", "email": ""}}, {"type": "Feature", "geometry": {"type": "Point", "coordinates": [-117.2855993, 34.2419509]}, "properties": {"hours": "", "notes": "home delivered meal providers", "name": "Family Service Association (FSA)", "street": "", "city": "Crestline", "state": "CA", "zip": "", "full-address": ", Crestline, CA,", "ig-handle": "", "twitter": "", "facebook": "", "phone": "(951) 342-3057", "website": "", "email": ""}}, {"type": "Feature", "geometry": {"type": "Point", "coordinates": [-117.3136544, 34.0339031]}, "properties": {"hours": "", "notes": "home delivered meal providers", "name": "Family Service Association (FSA)", "street": "", "city": "Grand Terrace", "state": "CA", "zip": "", "full-address": ", Grand Terrace, CA,", "ig-handle": "", "twitter": "", "facebook": "", "phone": "(951) 342-3057", "website": "", "email": ""}}, {"type": "Feature", "geometry": {"type": "Point", "coordinates": [-117.2086513, 34.1283442]}, "properties": {"hours": "", "notes": "home delivered meal providers", "name": "Family Service Association (FSA)", "street": "", "city": "Highland", "state": "CA", "zip": "", "full-address": ", Highland, CA,", "ig-handle": "", "twitter": "", "facebook": "", "phone": "(951) 342-3057", "website": "", "email": ""}}, {"type": "Feature", "geometry": {"type": "Point", "coordinates": [-116.3130661, 34.134728]}, "properties": {"hours": "", "notes": "home delivered meal providers", "name": "Family Service Association (FSA)", "street": "", "city": "Joshua Tree", "state": "CA", "zip": "", "full-address": ", Joshua Tree, CA,", "ig-handle": "", "twitter": "", "facebook": "", "phone": "(951) 342-3057", "website": "", "email": ""}}, {"type": "Feature", "geometry": {"type": "Point", "coordinates": [-116.3930703, 34.266114]}, "properties": {"hours": "", "notes": "home delivered meal providers", "name": "Family Service Association (FSA)", "street": "", "city": "Landers", "state": "CA", "zip": "", "full-address": ", Landers, CA,", "ig-handle": "", "twitter": "", "facebook": "", "phone": "(951) 342-3057", "website": "", "email": ""}}, {"type": "Feature", "geometry": {"type": "Point", "coordinates": [-117.2611527, 34.0483474]}, "properties": {"hours": "", "notes": "home delivered meal providers", "name": "Family Service Association (FSA)", "street": "", "city": "Loma Linda", "state": "CA", "zip": "", "full-address": ", Loma Linda, CA,", "ig-handle": "", "twitter": "", "facebook": "", "phone": "(951) 342-3057", "website": "", "email": ""}}, {"type": "Feature", "geometry": {"type": "Point", "coordinates": [-117.5000512, 34.2591728]}, "properties": {"hours": "", "notes": "home delivered meal providers", "name": "Family Service Association (FSA)", "street": "", "city": "Lytle Creek", "state": "CA", "zip": "", "full-address": ", Lytle Creek, CA,", "ig-handle": "", "twitter": "", "facebook": "", "phone": "(951) 342-3057", "website": "", "email": ""}}, {"type": "Feature", "geometry": {"type": "Point", "coordinates": [-117.1344806, 34.070013]}, "properties": {"hours": "", "notes": "home delivered meal providers", "name": "Family Service Association (FSA)", "street": "", "city": "Mentone", "state": "CA", "zip": "", "full-address": ", Mentone, CA,", "ig-handle": "", "twitter": "", "facebook": "", "phone": "(951) 342-3057", "website": "", "email": ""}}, {"type": "Feature", "geometry": {"type": "Point", "coordinates": [-117.6508876, 34.0633443]}, "properties": {"hours": "", "notes": "home delivered meal providers", "name": "Family Service Association (FSA)", "street": "", "city": "Ontario", "state": "CA", "zip": "", "full-address": ", Ontario, CA,", "ig-handle": "", "twitter": "", "facebook": "", "phone": "(951) 342-3057", "website": "", "email": ""}}, {"type": "Feature", "geometry": {"type": "Point", "coordinates": [-117.1825381, 34.0555693]}, "properties": {"hours": "", "notes": "home delivered meal providers", "name": "Family Service Association (FSA)", "street": "", "city": "Redlands", "state": "CA", "zip": "", "full-address": ", Redlands, CA,", "ig-handle": "", "twitter": "", "facebook": "", "phone": "(951) 342-3057", "website": "", "email": ""}}, {"type": "Feature", "geometry": {"type": "Point", "coordinates": [-117.3703235, 34.1064001]}, "properties": {"hours": "", "notes": "home delivered meal providers", "name": "Family Service Association (FSA)", "street": "", "city": "Rialto", "state": "CA", "zip": "", "full-address": ", Rialto, CA,", "ig-handle": "", "twitter": "", "facebook": "", "phone": "(951) 342-3057", "website": "", "email": ""}}, {"type": "Feature", "geometry": {"type": "Point", "coordinates": [-117.2897652, 34.1083449]}, "properties": {"hours": "", "notes": "home delivered meal providers", "name": "Family Service Association (FSA)", "street": "", "city": "San Bernardino", "state": "CA", "zip": "", "full-address": ", San Bernardino, CA,", "ig-handle": "", "twitter": "", "facebook": "", "phone": "(951) 342-3057", "website": "", "email": ""}}, {"type": "Feature", "geometry": {"type": "Point", "coordinates": [-116.0541689, 34.1355582]}, "properties": {"hours": "", "notes": "home delivered meal providers", "name": "Family Service Association (FSA)", "street": "", "city": "Twentynine Palms", "state": "CA", "zip": "", "full-address": ", Twentynine Palms, CA,", "ig-handle": "", "twitter": "", "facebook": "", "phone": "(951) 342-3057", "website": "", "email": ""}}, {"type": "Feature", "geometry": {"type": "Point", "coordinates": [-117.6483876, 34.09751]}, "properties": {"hours": "", "notes": "home delivered meal providers", "name": "Family Service Association (FSA)", "street": "", "city": "Upland", "state": "CA", "zip": "", "full-address": ", Upland, CA,", "ig-handle": "", "twitter": "", "facebook": "", "phone": "(951) 342-3057", "website": "", "email": ""}}, {"type": "Feature", "geometry": {"type": "Point", "coordinates": [-115.8758354, 34.155373]}, "properties": {"hours": "", "notes": "home delivered meal providers", "name": "Family Service Association (FSA)", "street": "", "city": "Wonder Valley", "state": "CA", "zip": "", "full-address": ", Wonder Valley, CA,", "ig-handle": "", "twitter": "", "facebook": "", "phone": "(951) 342-3057", "website": "", "email": ""}}, {"type": "Feature", "geometry": {"type": "Point", "coordinates": [-117.0430865, 34.033625]}, "properties": {"hours": "", "notes": "home delivered meal providers", "name": "Family Service Association (FSA)", "street": "", "city": "Yucaipa", "state": "CA", "zip": "", "full-address": ", Yucaipa, CA,", "ig-handle": "", "twitter": "", "facebook": "", "phone": "(951) 342-3057", "website": "", "email": ""}}, {"type": "Feature", "geometry": {"type": "Point", "coordinates": [-116.432235, 34.1141743]}, "properties": {"hours": "", "notes": "home delivered meal providers", "name": "Family Service Association (FSA)", "street": "", "city": "Yucca Valley", "state": "CA", "zip": "", "full-address": ", Yucca Valley, CA,", "ig-handle": "", "twitter": "", "facebook": "", "phone": "(951) 342-3057", "website": "", "email": ""}}, {"type": "Feature", "geometry": {"type": "Point", "coordinates": [-117.2611527, 34.0483474]}, "properties": {"hours": "", "notes": "MONDAY, WEDNESDAY, FRIDAY BETWEEN 11AM-12PM (EXCLUDING HOLIDAYS) - $4 - MORE THAN ONE MEAL CAN BE DELIVERED ON EACH OF THESE DAYS IF REQUESTED", "name": "Reach Meals on Wheels - Loma Linda University Church", "street": "", "city": "Loma Linda", "state": "CA", "zip": "", "full-address": ", Loma Linda, CA,", "ig-handle": "", "twitter": "", "facebook": "", "phone": "", "website": "http://ureachlluc.com/meals-on-wheels", "email": ""}}, {"type": "Feature", "geometry": {"type": "Point", "coordinates": [-117.3136547, 34.0739016]}, "properties": {"hours": "", "notes": "MONDAY, WEDNESDAY, FRIDAY BETWEEN 11AM-12PM (EXCLUDING HOLIDAYS) - $4 - MORE THAN ONE MEAL CAN BE DELIVERED ON EACH OF THESE DAYS IF REQUESTED", "name": "Reach Meals on Wheels - Loma Linda University Church", "street": "", "city": "Colton", "state": "CA", "zip": "", "full-address": ", Colton, CA,", "ig-handle": "", "twitter": "", "facebook": "", "phone": "", "website": "http://ureachlluc.com/meals-on-wheels", "email": ""}}, {"type": "Feature", "geometry": {"type": "Point", "coordinates": [-117.3136544, 34.0339031]}, "properties": {"hours": "", "notes": "MONDAY, WEDNESDAY, FRIDAY BETWEEN 11AM-12PM (EXCLUDING HOLIDAYS) - $4 - MORE THAN ONE MEAL CAN BE DELIVERED ON EACH OF THESE DAYS IF REQUESTED", "name": "Reach Meals on Wheels - Loma Linda University Church", "street": "", "city": "Grand Terrace", "state": "CA", "zip": "", "full-address": ", Grand Terrace, CA,", "ig-handle": "", "twitter": "", "facebook": "", "phone": "", "website": "http://ureachlluc.com/meals-on-wheels", "email": ""}}, {"type": "Feature", "geometry": {"type": "Point", "coordinates": [-117.1825381, 34.0555693]}, "properties": {"hours": "", "notes": "MONDAY, WEDNESDAY, FRIDAY BETWEEN 11AM-12PM (EXCLUDING HOLIDAYS) - $4 - MORE THAN ONE MEAL CAN BE DELIVERED ON EACH OF THESE DAYS IF REQUESTED", "name": "Reach Meals on Wheels - Loma Linda University Church", "street": "", "city": "Redlands", "state": "CA", "zip": "", "full-address": ", Redlands, CA,", "ig-handle": "", "twitter": "", "facebook": "", "phone": "", "website": "", "email": ""}}, {"type": "Feature", "geometry": {"type": "Point", "coordinates": [-118.3545967, 34.0130353]}, "properties": {"hours": "", "notes": "The County and City of Los Angeles are providing free meals (effective March 30, 2020) to older adults age 60 and older who are impacted by the COVID-19 Crisis. Call 1-800-510-2020 to request services. Meals are provided either at distribution sites or via home-delivered meals. We\u2019re transitioning to home-delivered meals at most locations. The map to the right has information about each site. Older adults 65 and older must send a family member, friend or caregiver who is under the age of 65 to pick up meals at their assigned site.", "name": "Jim Gilliam Senior Center", "street": "4000 S. La Brea Ave", "city": "Los Angeles", "state": "CA", "zip": "90008", "full-address": "4000 S. La Brea Ave, Los Angeles, CA, 90008", "ig-handle": "", "twitter": "", "facebook": "", "phone": "1-800-510-2020", "website": "https://aging.lacity.org/", "email": ""}}, {"type": "Feature", "geometry": {"type": "Point", "coordinates": [-118.3314451, 33.9957501]}, "properties": {"hours": "", "notes": "The County and City of Los Angeles are providing free meals (effective March 30, 2020) to older adults age 60 and older who are impacted by the COVID-19 Crisis. Call 1-800-510-2020 to request services. Meals are provided either at distribution sites or via home-delivered meals. We\u2019re transitioning to home-delivered meals at most locations. The map to the right has information about each site. Older adults 65 and older must send a family member, friend or caregiver who is under the age of 65 to pick up meals at their assigned site.", "name": "Southwestern MPC", "street": "5133 S. Crenshaw Blvd.", "city": "Los Angeles", "state": "CA", "zip": "90043", "full-address": "5133 S. Crenshaw Blvd., Los Angeles, CA, 90043", "ig-handle": "", "twitter": "", "facebook": "", "phone": "1-800-510-2020", "website": "https://aging.lacity.org/", "email": ""}}, {"type": "Feature", "geometry": {"type": "Point", "coordinates": [-118.3136076, 33.9632286]}, "properties": {"hours": "", "notes": "The County and City of Los Angeles are providing free meals (effective March 30, 2020) to older adults age 60 and older who are impacted by the COVID-19 Crisis. Call 1-800-510-2020 to request services. Meals are provided either at distribution sites or via home-delivered meals. We\u2019re transitioning to home-delivered meals at most locations. The map to the right has information about each site. Older adults 65 and older must send a family member, friend or caregiver who is under the age of 65 to pick up meals at their assigned site.", "name": "St. Mark's United Methodist Church", "street": "8305 S. Gramercy Pl", "city": "Los Angeles", "state": "CA", "zip": "90047", "full-address": "8305 S. Gramercy Pl, Los Angeles, CA, 90047", "ig-handle": "", "twitter": "", "facebook": "", "phone": "1-800-510-2020", "website": "https://aging.lacity.org/", "email": ""}}, {"type": "Feature", "geometry": {"type": "Point", "coordinates": [-118.4195606, 33.9882699]}, "properties": {"hours": "", "notes": "The County and City of Los Angeles are providing free meals (effective March 30, 2020) to older adults age 60 and older who are impacted by the COVID-19 Crisis. Call 1-800-510-2020 to request services. Meals are provided either at distribution sites or via home-delivered meals. We\u2019re transitioning to home-delivered meals at most locations. The map to the right has information about each site. Older adults 65 and older must send a family member, friend or caregiver who is under the age of 65 to pick up meals at their assigned site.", "name": "Venice Japanese Center", "street": "12448 Braddock Dr", "city": "Los Angeles", "state": "CA", "zip": "90066", "full-address": "12448 Braddock Dr, Los Angeles, CA, 90066", "ig-handle": "", "twitter": "", "facebook": "", "phone": "1-800-510-2020", "website": "https://aging.lacity.org/", "email": ""}}, {"type": "Feature", "geometry": {"type": "Point", "coordinates": [-118.4173612, 33.9586242]}, "properties": {"hours": "", "notes": "The County and City of Los Angeles are providing free meals (effective March 30, 2020) to older adults age 60 and older who are impacted by the COVID-19 Crisis. Call 1-800-510-2020 to request services. Meals are provided either at distribution sites or via home-delivered meals. We\u2019re transitioning to home-delivered meals at most locations. The map to the right has information about each site. Older adults 65 and older must send a family member, friend or caregiver who is under the age of 65 to pick up meals at their assigned site.", "name": "Westchester Senior Center", "street": "8740 Lincoln Blvd", "city": "Los Angeles", "state": "CA", "zip": "90045", "full-address": "8740 Lincoln Blvd, Los Angeles, CA, 90045", "ig-handle": "", "twitter": "", "facebook": "", "phone": "1-800-510-2020", "website": "https://aging.lacity.org/", "email": ""}}, {"type": "Feature", "geometry": {"type": "Point", "coordinates": [-118.3370335, 34.0136447]}, "properties": {"hours": "", "notes": "The County and City of Los Angeles are providing free meals (effective March 30, 2020) to older adults age 60 and older who are impacted by the COVID-19 Crisis. Call 1-800-510-2020 to request services. Meals are provided either at distribution sites or via home-delivered meals. We\u2019re transitioning to home-delivered meals at most locations. The map to the right has information about each site. Older adults 65 and older must send a family member, friend or caregiver who is under the age of 65 to pick up meals at their assigned site.", "name": "Baldwin Villa Senior Housing Site", "street": "3939 Marlton Ave", "city": "Los Angeles", "state": "CA", "zip": "90008", "full-address": "3939 Marlton Ave, Los Angeles, CA, 90008", "ig-handle": "", "twitter": "", "facebook": "", "phone": "1-800-510-2020", "website": "https://aging.lacity.org/", "email": ""}}, {"type": "Feature", "geometry": {"type": "Point", "coordinates": [-118.3171192, 34.0401698]}, "properties": {"hours": "", "notes": "The County and City of Los Angeles are providing free meals (effective March 30, 2020) to older adults age 60 and older who are impacted by the COVID-19 Crisis. Call 1-800-510-2020 to request services. Meals are provided either at distribution sites or via home-delivered meals. We\u2019re transitioning to home-delivered meals at most locations. The map to the right has information about each site. Older adults 65 and older must send a family member, friend or caregiver who is under the age of 65 to pick up meals at their assigned site.", "name": "George & Helen Thomas Center", "street": "2475 Washington Blvd", "city": "Los Angeles", "state": "CA", "zip": "90018", "full-address": "2475 Washington Blvd, Los Angeles, CA, 90018", "ig-handle": "", "twitter": "", "facebook": "", "phone": "1-800-510-2020", "website": "https://aging.lacity.org/", "email": ""}}, {"type": "Feature", "geometry": {"type": "Point", "coordinates": [-118.3115828, 34.0334743]}, "properties": {"hours": "", "notes": "The County and City of Los Angeles are providing free meals (effective March 30, 2020) to older adults age 60 and older who are impacted by the COVID-19 Crisis. Call 1-800-510-2020 to request services. Meals are provided either at distribution sites or via home-delivered meals. We\u2019re transitioning to home-delivered meals at most locations. The map to the right has information about each site. Older adults 65 and older must send a family member, friend or caregiver who is under the age of 65 to pick up meals at their assigned site.", "name": "Independent Square Senior Housing Site", "street": "2455 S. St. Andrews Pl", "city": "Los Angeles", "state": "CA", "zip": "90018", "full-address": "2455 S. St. Andrews Pl, Los Angeles, CA, 90018", "ig-handle": "", "twitter": "", "facebook": "", "phone": "1-800-510-2020", "website": "https://aging.lacity.org/", "email": ""}}, {"type": "Feature", "geometry": {"type": "Point", "coordinates": [-118.3408619, 34.0333195]}, "properties": {"hours": "", "notes": "The County and City of Los Angeles are providing free meals (effective March 30, 2020) to older adults age 60 and older who are impacted by the COVID-19 Crisis. Call 1-800-510-2020 to request services. Meals are provided either at distribution sites or via home-delivered meals. We\u2019re transitioning to home-delivered meals at most locations. The map to the right has information about each site. Older adults 65 and older must send a family member, friend or caregiver who is under the age of 65 to pick up meals at their assigned site.", "name": "West Adams MPC (Dining Center)", "street": "2528 West Blvd", "city": "Los Angeles", "state": "CA", "zip": "90016", "full-address": "2528 West Blvd, Los Angeles, CA, 90016", "ig-handle": "", "twitter": "", "facebook": "", "phone": "1-800-510-2020", "website": "https://aging.lacity.org/", "email": ""}}, {"type": "Feature", "geometry": {"type": "Point", "coordinates": [-118.3300111, 34.0253719]}, "properties": {"hours": "", "notes": "The County and City of Los Angeles are providing free meals (effective March 30, 2020) to older adults age 60 and older who are impacted by the COVID-19 Crisis. Call 1-800-510-2020 to request services. Meals are provided either at distribution sites or via home-delivered meals. We\u2019re transitioning to home-delivered meals at most locations. The map to the right has information about each site. Older adults 65 and older must send a family member, friend or caregiver who is under the age of 65 to pick up meals at their assigned site.", "name": "Seinan Recreation Center", "street": "3116 W. Jefferson Blvd", "city": "Los Angeles", "state": "CA", "zip": "90016", "full-address": "3116 W. Jefferson Blvd, Los Angeles, CA, 90016", "ig-handle": "", "twitter": "", "facebook": "", "phone": "1-800-510-2020", "website": "https://aging.lacity.org/", "email": ""}}, {"type": "Feature", "geometry": {"type": "Point", "coordinates": [-118.285231, 34.032891]}, "properties": {"hours": "", "notes": "The County and City of Los Angeles are providing free meals (effective March 30, 2020) to older adults age 60 and older who are impacted by the COVID-19 Crisis. Call 1-800-510-2020 to request services. Meals are provided either at distribution sites or via home-delivered meals. We\u2019re transitioning to home-delivered meals at most locations. The map to the right has information about each site. Older adults 65 and older must send a family member, friend or caregiver who is under the age of 65 to pick up meals at their assigned site.", "name": "Ward Villa Senior Housing Site", "street": "1177 W. Adams Blvd", "city": "Los Angeles", "state": "CA", "zip": "90007", "full-address": "1177 W. Adams Blvd, Los Angeles, CA, 90007", "ig-handle": "", "twitter": "", "facebook": "", "phone": "1-800-510-2020", "website": "https://aging.lacity.org/", "email": ""}}, {"type": "Feature", "geometry": {"type": "Point", "coordinates": [-118.4496915, 34.0457623]}, "properties": {"hours": "", "notes": "The County and City of Los Angeles are providing free meals (effective March 30, 2020) to older adults age 60 and older who are impacted by the COVID-19 Crisis. Call 1-800-510-2020 to request services. Meals are provided either at distribution sites or via home-delivered meals. We\u2019re transitioning to home-delivered meals at most locations. The map to the right has information about each site. Older adults 65 and older must send a family member, friend or caregiver who is under the age of 65 to pick up meals at their assigned site.", "name": "Felicia Mahood MPC (Dining Center)", "street": "11338 Santa Monica Blvd", "city": "Los Angeles", "state": "CA", "zip": "90025", "full-address": "11338 Santa Monica Blvd, Los Angeles, CA, 90025", "ig-handle": "", "twitter": "", "facebook": "", "phone": "1-800-510-2020", "website": "https://aging.lacity.org/", "email": ""}}, {"type": "Feature", "geometry": {"type": "Point", "coordinates": [-118.4807392, 33.9953116999999]}, "properties": {"hours": "", "notes": "The County and City of Los Angeles are providing free meals (effective March 30, 2020) to older adults age 60 and older who are impacted by the COVID-19 Crisis. Call 1-800-510-2020 to request services. Meals are provided either at distribution sites or via home-delivered meals. We\u2019re transitioning to home-delivered meals at most locations. The map to the right has information about each site. Older adults 65 and older must send a family member, friend or caregiver who is under the age of 65 to pick up meals at their assigned site.", "name": "Israel Levin Senior Center", "street": "201 Ocean Front Walk", "city": "Venice", "state": "CA", "zip": "90291", "full-address": "201 Ocean Front Walk, Venice, CA, 90291", "ig-handle": "", "twitter": "", "facebook": "", "phone": "1-800-510-2020", "website": "https://aging.lacity.org/", "email": ""}}, {"type": "Feature", "geometry": {"type": "Point", "coordinates": [-118.4637584, 33.9946847]}, "properties": {"hours": "", "notes": "The County and City of Los Angeles are providing free meals (effective March 30, 2020) to older adults age 60 and older who are impacted by the COVID-19 Crisis. Call 1-800-510-2020 to request services. Meals are provided either at distribution sites or via home-delivered meals. We\u2019re transitioning to home-delivered meals at most locations. The map to the right has information about each site. Older adults 65 and older must send a family member, friend or caregiver who is under the age of 65 to pick up meals at their assigned site.", "name": "Oakwood Recreation Center", "street": "767 California Ave", "city": "Venice", "state": "CA", "zip": "90291", "full-address": "767 California Ave, Venice, CA, 90291", "ig-handle": "", "twitter": "", "facebook": "", "phone": "1-800-510-2020", "website": "https://aging.lacity.org/", "email": ""}}, {"type": "Feature", "geometry": {"type": "Point", "coordinates": [-118.4532506, 34.0377912]}, "properties": {"hours": "", "notes": "The County and City of Los Angeles are providing free meals (effective March 30, 2020) to older adults age 60 and older who are impacted by the COVID-19 Crisis. Call 1-800-510-2020 to request services. Meals are provided either at distribution sites or via home-delivered meals. We\u2019re transitioning to home-delivered meals at most locations. The map to the right has information about each site. Older adults 65 and older must send a family member, friend or caregiver who is under the age of 65 to pick up meals at their assigned site.", "name": "OPICA Adult Day Care Center", "street": "11759 Missouri Ave.", "city": "Los Angeles", "state": "CA", "zip": "90025", "full-address": "11759 Missouri Ave., Los Angeles, CA, 90025", "ig-handle": "", "twitter": "", "facebook": "", "phone": "1-800-510-2020", "website": "https://aging.lacity.org/", "email": ""}}, {"type": "Feature", "geometry": {"type": "Point", "coordinates": [-118.4427637, 34.0387893]}, "properties": {"hours": "", "notes": "The County and City of Los Angeles are providing free meals (effective March 30, 2020) to older adults age 60 and older who are impacted by the COVID-19 Crisis. Call 1-800-510-2020 to request services. Meals are provided either at distribution sites or via home-delivered meals. We\u2019re transitioning to home-delivered meals at most locations. The map to the right has information about each site. Older adults 65 and older must send a family member, friend or caregiver who is under the age of 65 to pick up meals at their assigned site.", "name": "West Los Angeles Japanese Senior Center", "street": "2110 Corinth Ave", "city": "Los Angeles", "state": "CA", "zip": "90025", "full-address": "2110 Corinth Ave, Los Angeles, CA, 90025", "ig-handle": "", "twitter": "", "facebook": "", "phone": "1-800-510-2020", "website": "https://aging.lacity.org/", "email": ""}}, {"type": "Feature", "geometry": {"type": "Point", "coordinates": [-118.3763888, 34.0452229]}, "properties": {"hours": "", "notes": "The County and City of Los Angeles are providing free meals (effective March 30, 2020) to older adults age 60 and older who are impacted by the COVID-19 Crisis. Call 1-800-510-2020 to request services. Meals are provided either at distribution sites or via home-delivered meals. We\u2019re transitioning to home-delivered meals at most locations. The map to the right has information about each site. Older adults 65 and older must send a family member, friend or caregiver who is under the age of 65 to pick up meals at their assigned site.", "name": "Claude Pepper Senior Center", "street": "1762 La Cienega Blvd", "city": "Los Angeles", "state": "CA", "zip": "90035", "full-address": "1762 La Cienega Blvd, Los Angeles, CA, 90035", "ig-handle": "", "twitter": "", "facebook": "", "phone": "1-800-510-2020", "website": "https://aging.lacity.org/", "email": ""}}, {"type": "Feature", "geometry": {"type": "Point", "coordinates": [-118.3623112, 34.0840233]}, "properties": {"hours": "", "notes": "The County and City of Los Angeles are providing free meals (effective March 30, 2020) to older adults age 60 and older who are impacted by the COVID-19 Crisis. Call 1-800-510-2020 to request services. Meals are provided either at distribution sites or via home-delivered meals. We\u2019re transitioning to home-delivered meals at most locations. The map to the right has information about each site. Older adults 65 and older must send a family member, friend or caregiver who is under the age of 65 to pick up meals at their assigned site.", "name": "Fairfax Senior Center", "street": "7929 Melrose Ave", "city": "Los Angeles", "state": "CA", "zip": "90036", "full-address": "7929 Melrose Ave, Los Angeles, CA, 90036", "ig-handle": "", "twitter": "", "facebook": "", "phone": "1-800-510-2020", "website": "https://aging.lacity.org/", "email": ""}}, {"type": "Feature", "geometry": {"type": "Point", "coordinates": [-118.3611496, 34.0770549]}, "properties": {"hours": "", "notes": "The County and City of Los Angeles are providing free meals (effective March 30, 2020) to older adults age 60 and older who are impacted by the COVID-19 Crisis. Call 1-800-510-2020 to request services. Meals are provided either at distribution sites or via home-delivered meals. We\u2019re transitioning to home-delivered meals at most locations. The map to the right has information about each site. Older adults 65 and older must send a family member, friend or caregiver who is under the age of 65 to pick up meals at their assigned site.", "name": "Hirsh Family Caf\u00c3\u00a9", "street": "330 N. Fairfax Ave", "city": "Los Angeles", "state": "CA", "zip": "90036", "full-address": "330 N. Fairfax Ave, Los Angeles, CA, 90036", "ig-handle": "", "twitter": "", "facebook": "", "phone": "1-800-510-2020", "website": "https://aging.lacity.org/", "email": ""}}, {"type": "Feature", "geometry": {"type": "Point", "coordinates": [-118.3534403, 34.0721208]}, "properties": {"hours": "", "notes": "The County and City of Los Angeles are providing free meals (effective March 30, 2020) to older adults age 60 and older who are impacted by the COVID-19 Crisis. Call 1-800-510-2020 to request services. Meals are provided either at distribution sites or via home-delivered meals. We\u2019re transitioning to home-delivered meals at most locations. The map to the right has information about each site. Older adults 65 and older must send a family member, friend or caregiver who is under the age of 65 to pick up meals at their assigned site.", "name": "Pan Pacific Senior Center", "street": "141 S. Gardner St", "city": "Los Angeles", "state": "CA", "zip": "90036", "full-address": "141 S. Gardner St, Los Angeles, CA, 90036", "ig-handle": "", "twitter": "", "facebook": "", "phone": "1-800-510-2020", "website": "https://aging.lacity.org/", "email": ""}}, {"type": "Feature", "geometry": {"type": "Point", "coordinates": [-118.3830801, 34.0537606]}, "properties": {"hours": "", "notes": "The County and City of Los Angeles are providing free meals (effective March 30, 2020) to older adults age 60 and older who are impacted by the COVID-19 Crisis. Call 1-800-510-2020 to request services. Meals are provided either at distribution sites or via home-delivered meals. We\u2019re transitioning to home-delivered meals at most locations. The map to the right has information about each site. Older adults 65 and older must send a family member, friend or caregiver who is under the age of 65 to pick up meals at their assigned site.", "name": "Pico-Wooster Senior Center", "street": "1425 S. Wooster St", "city": "Los Angeles", "state": "CA", "zip": "90035", "full-address": "1425 S. Wooster St, Los Angeles, CA, 90035", "ig-handle": "", "twitter": "", "facebook": "", "phone": "1-800-510-2020", "website": "https://aging.lacity.org/", "email": ""}}, {"type": "Feature", "geometry": {"type": "Point", "coordinates": [-118.5311464, 34.1871759]}, "properties": {"hours": "", "notes": "The County and City of Los Angeles are providing free meals (effective March 30, 2020) to older adults age 60 and older who are impacted by the COVID-19 Crisis. Call 1-800-510-2020 to request services. Meals are provided either at distribution sites or via home-delivered meals. We\u2019re transitioning to home-delivered meals at most locations. The map to the right has information about each site. Older adults 65 and older must send a family member, friend or caregiver who is under the age of 65 to pick up meals at their assigned site.", "name": "O.N.E.Generation MPC (Dining Site)", "street": "18255 Victory Blvd", "city": "Reseda", "state": "CA", "zip": "91335", "full-address": "18255 Victory Blvd, Reseda, CA, 91335", "ig-handle": "", "twitter": "", "facebook": "", "phone": "1-800-510-2020", "website": "https://aging.lacity.org/", "email": ""}}, {"type": "Feature", "geometry": {"type": "Point", "coordinates": [-118.6026388, 34.2036945]}, "properties": {"hours": "", "notes": "The County and City of Los Angeles are providing free meals (effective March 30, 2020) to older adults age 60 and older who are impacted by the COVID-19 Crisis. Call 1-800-510-2020 to request services. Meals are provided either at distribution sites or via home-delivered meals. We\u2019re transitioning to home-delivered meals at most locations. The map to the right has information about each site. Older adults 65 and older must send a family member, friend or caregiver who is under the age of 65 to pick up meals at their assigned site.", "name": "Canoga Park Senior Center (Jordan)", "street": "7326 Jordan Ave", "city": "Canoga Park", "state": "CA", "zip": "91303", "full-address": "7326 Jordan Ave, Canoga Park, CA, 91303", "ig-handle": "", "twitter": "", "facebook": "", "phone": "1-800-510-2020", "website": "https://aging.lacity.org/", "email": ""}}, {"type": "Feature", "geometry": {"type": "Point", "coordinates": [-118.5132304, 34.185708]}, "properties": {"hours": "", "notes": "The County and City of Los Angeles are providing free meals (effective March 30, 2020) to older adults age 60 and older who are impacted by the COVID-19 Crisis. Call 1-800-510-2020 to request services. Meals are provided either at distribution sites or via home-delivered meals. We\u2019re transitioning to home-delivered meals at most locations. The map to the right has information about each site. Older adults 65 and older must send a family member, friend or caregiver who is under the age of 65 to pick up meals at their assigned site.", "name": "Mark Taper Intergenerational Day Care Center", "street": "17400 Victory Blvd", "city": "Van Nuys", "state": "CA", "zip": "91406", "full-address": "17400 Victory Blvd, Van Nuys, CA, 91406", "ig-handle": "", "twitter": "", "facebook": "", "phone": "1-800-510-2020", "website": "https://aging.lacity.org/", "email": ""}}, {"type": "Feature", "geometry": {"type": "Point", "coordinates": [-118.6012256, 34.1851102]}, "properties": {"hours": "", "notes": "The County and City of Los Angeles are providing free meals (effective March 30, 2020) to older adults age 60 and older who are impacted by the COVID-19 Crisis. Call 1-800-510-2020 to request services. Meals are provided either at distribution sites or via home-delivered meals. We\u2019re transitioning to home-delivered meals at most locations. The map to the right has information about each site. Older adults 65 and older must send a family member, friend or caregiver who is under the age of 65 to pick up meals at their assigned site.", "name": "Owensmouth Gardens Senior Center", "street": "6300 Owensmouth Ave", "city": "Woodland Hills", "state": "CA", "zip": "91367", "full-address": "6300 Owensmouth Ave, Woodland Hills, CA, 91367", "ig-handle": "", "twitter": "", "facebook": "", "phone": "1-800-510-2020", "website": "https://aging.lacity.org/", "email": ""}}, {"type": "Feature", "geometry": {"type": "Point", "coordinates": [-118.2427537, 34.0405401]}, "properties": {"hours": "", "notes": "The County and City of Los Angeles are providing free meals (effective March 30, 2020) to older adults age 60 and older who are impacted by the COVID-19 Crisis. Call 1-800-510-2020 to request services. Meals are provided either at distribution sites or via home-delivered meals. We\u2019re transitioning to home-delivered meals at most locations. The map to the right has information about each site. Older adults 65 and older must send a family member, friend or caregiver who is under the age of 65 to pick up meals at their assigned site.", "name": "Ellis Hotel Senior Site", "street": "802 E. 6th St", "city": "Los Angeles", "state": "CA", "zip": "90021", "full-address": "802 E. 6th St, Los Angeles, CA, 90021", "ig-handle": "", "twitter": "", "facebook": "", "phone": "1-800-510-2020", "website": "https://aging.lacity.org/", "email": ""}}, {"type": "Feature", "geometry": {"type": "Point", "coordinates": [-118.244936, 34.0443609999999]}, "properties": {"hours": "", "notes": "The County and City of Los Angeles are providing free meals (effective March 30, 2020) to older adults age 60 and older who are impacted by the COVID-19 Crisis. Call 1-800-510-2020 to request services. Meals are provided either at distribution sites or via home-delivered meals. We\u2019re transitioning to home-delivered meals at most locations. The map to the right has information about each site. Older adults 65 and older must send a family member, friend or caregiver who is under the age of 65 to pick up meals at their assigned site.", "name": "James Wood Community Center", "street": "400 E. 5th St", "city": "Los Angeles", "state": "CA", "zip": "90013", "full-address": "400 E. 5th St, Los Angeles, CA, 90013", "ig-handle": "", "twitter": "", "facebook": "", "phone": "1-800-510-2020", "website": "https://aging.lacity.org/", "email": ""}}, {"type": "Feature", "geometry": {"type": "Point", "coordinates": [-118.2626495, 33.7757896]}, "properties": {"hours": "", "notes": "The County and City of Los Angeles are providing free meals (effective March 30, 2020) to older adults age 60 and older who are impacted by the COVID-19 Crisis. Call 1-800-510-2020 to request services. Meals are provided either at distribution sites or via home-delivered meals. We\u2019re transitioning to home-delivered meals at most locations. The map to the right has information about each site. Older adults 65 and older must send a family member, friend or caregiver who is under the age of 65 to pick up meals at their assigned site.", "name": "Amvets Nutrition Site", "street": "121 West East Street", "city": "Wilmington", "state": "CA", "zip": "90744", "full-address": "121 West East Street, Wilmington, CA, 90744", "ig-handle": "", "twitter": "", "facebook": "", "phone": "1-800-510-2020", "website": "https://aging.lacity.org/", "email": ""}}, {"type": "Feature", "geometry": {"type": "Point", "coordinates": [-118.2854593, 33.7363165999999]}, "properties": {"hours": "", "notes": "The County and City of Los Angeles are providing free meals (effective March 30, 2020) to older adults age 60 and older who are impacted by the COVID-19 Crisis. Call 1-800-510-2020 to request services. Meals are provided either at distribution sites or via home-delivered meals. We\u2019re transitioning to home-delivered meals at most locations. The map to the right has information about each site. Older adults 65 and older must send a family member, friend or caregiver who is under the age of 65 to pick up meals at their assigned site.", "name": "Anderson Memorial Center", "street": "828 S. Mesa St", "city": "San Pedro", "state": "CA", "zip": "90731", "full-address": "828 S. Mesa St, San Pedro, CA, 90731", "ig-handle": "", "twitter": "", "facebook": "", "phone": "1-800-510-2020", "website": "https://aging.lacity.org/", "email": ""}}, {"type": "Feature", "geometry": {"type": "Point", "coordinates": [-118.3010894, 33.8228983]}, "properties": {"hours": "", "notes": "The County and City of Los Angeles are providing free meals (effective March 30, 2020) to older adults age 60 and older who are impacted by the COVID-19 Crisis. Call 1-800-510-2020 to request services. Meals are provided either at distribution sites or via home-delivered meals. We\u2019re transitioning to home-delivered meals at most locations. The map to the right has information about each site. Older adults 65 and older must send a family member, friend or caregiver who is under the age of 65 to pick up meals at their assigned site.", "name": "Normandale Recreation Center", "street": "22400 Halldale Ave", "city": "Torrance", "state": "CA", "zip": "90501", "full-address": "22400 Halldale Ave, Torrance, CA, 90501", "ig-handle": "", "twitter": "", "facebook": "", "phone": "1-800-510-2020", "website": "https://aging.lacity.org/", "email": ""}}, {"type": "Feature", "geometry": {"type": "Point", "coordinates": [-118.2938035, 33.7412554]}, "properties": {"hours": "", "notes": "The County and City of Los Angeles are providing free meals (effective March 30, 2020) to older adults age 60 and older who are impacted by the COVID-19 Crisis. Call 1-800-510-2020 to request services. Meals are provided either at distribution sites or via home-delivered meals. We\u2019re transitioning to home-delivered meals at most locations. The map to the right has information about each site. Older adults 65 and older must send a family member, friend or caregiver who is under the age of 65 to pick up meals at their assigned site.", "name": "San Pedro Service Center", "street": "769 W. Thrid St", "city": "San Pedro", "state": "CA", "zip": "90731", "full-address": "769 W. Thrid St, San Pedro, CA, 90731", "ig-handle": "", "twitter": "", "facebook": "", "phone": "1-800-510-2020", "website": "https://aging.lacity.org/", "email": ""}}, {"type": "Feature", "geometry": {"type": "Point", "coordinates": [-118.2568194, 33.7913195]}, "properties": {"hours": "", "notes": "The County and City of Los Angeles are providing free meals (effective March 30, 2020) to older adults age 60 and older who are impacted by the COVID-19 Crisis. Call 1-800-510-2020 to request services. Meals are provided either at distribution sites or via home-delivered meals. We\u2019re transitioning to home-delivered meals at most locations. The map to the right has information about each site. Older adults 65 and older must send a family member, friend or caregiver who is under the age of 65 to pick up meals at their assigned site.", "name": "Wilmington Jaycees Foundation, Inc MPC", "street": "1371 Eubank Ave", "city": "Wilmington", "state": "CA", "zip": "90744", "full-address": "1371 Eubank Ave, Wilmington, CA, 90744", "ig-handle": "", "twitter": "", "facebook": "", "phone": "1-800-510-2020", "website": "https://aging.lacity.org/", "email": ""}}, {"type": "Feature", "geometry": {"type": "Point", "coordinates": [-118.1261281, 34.0899092]}, "properties": {"hours": "", "notes": "The County and City of Los Angeles are providing free meals (effective March 30, 2020) to older adults age 60 and older who are impacted by the COVID-19 Crisis. Call 1-800-510-2020 to request services. Meals are provided either at distribution sites or via home-delivered meals. We\u2019re transitioning to home-delivered meals at most locations. The map to the right has information about each site. Older adults 65 and older must send a family member, friend or caregiver who is under the age of 65 to pick up meals at their assigned site.", "name": "Rancho San Pedro", "street": "202 W. Beacon St", "city": "Wilmington", "state": "CA", "zip": "90744", "full-address": "202 W. Beacon St, Wilmington, CA, 90744", "ig-handle": "", "twitter": "", "facebook": "", "phone": "1-800-510-2020", "website": "https://aging.lacity.org/", "email": ""}}, {"type": "Feature", "geometry": {"type": "Point", "coordinates": [-118.5485637, 34.2333403]}, "properties": {"hours": "", "notes": "The County and City of Los Angeles are providing free meals (effective March 30, 2020) to older adults age 60 and older who are impacted by the COVID-19 Crisis. Call 1-800-510-2020 to request services. Meals are provided either at distribution sites or via home-delivered meals. We\u2019re transitioning to home-delivered meals at most locations. The map to the right has information about each site. Older adults 65 and older must send a family member, friend or caregiver who is under the age of 65 to pick up meals at their assigned site.", "name": "Robert Wilkinson MPC (Dining Center)", "street": "8956 Vanalden Ave", "city": "Northridge", "state": "CA", "zip": "91324", "full-address": "8956 Vanalden Ave, Northridge, CA, 91324", "ig-handle": "", "twitter": "", "facebook": "", "phone": "1-800-510-2020", "website": "https://aging.lacity.org/", "email": ""}}, {"type": "Feature", "geometry": {"type": "Point", "coordinates": [-118.5020348, 34.2540872]}, "properties": {"hours": "", "notes": "The County and City of Los Angeles are providing free meals (effective March 30, 2020) to older adults age 60 and older who are impacted by the COVID-19 Crisis. Call 1-800-510-2020 to request services. Meals are provided either at distribution sites or via home-delivered meals. We\u2019re transitioning to home-delivered meals at most locations. The map to the right has information about each site. Older adults 65 and older must send a family member, friend or caregiver who is under the age of 65 to pick up meals at their assigned site.", "name": "Community Integrated Services C.I.S.", "street": "10100 Balboa Blvd", "city": "Granada Hills", "state": "CA", "zip": "91344", "full-address": "10100 Balboa Blvd, Granada Hills, CA, 91344", "ig-handle": "", "twitter": "", "facebook": "", "phone": "1-800-510-2020", "website": "https://aging.lacity.org/", "email": ""}}, {"type": "Feature", "geometry": {"type": "Point", "coordinates": [-118.5715458, 34.2578628]}, "properties": {"hours": "", "notes": "The County and City of Los Angeles are providing free meals (effective March 30, 2020) to older adults age 60 and older who are impacted by the COVID-19 Crisis. Call 1-800-510-2020 to request services. Meals are provided either at distribution sites or via home-delivered meals. We\u2019re transitioning to home-delivered meals at most locations. The map to the right has information about each site. Older adults 65 and older must send a family member, friend or caregiver who is under the age of 65 to pick up meals at their assigned site.", "name": "St. Stephen Church Senior Site", "street": "20121 Devonshire Street", "city": "Chatsworth", "state": "CA", "zip": "91311", "full-address": "20121 Devonshire Street, Chatsworth, CA, 91311", "ig-handle": "", "twitter": "", "facebook": "", "phone": "1-800-510-2020", "website": "https://aging.lacity.org/", "email": ""}}, {"type": "Feature", "geometry": {"type": "Point", "coordinates": [-118.4691955, 34.2423921]}, "properties": {"hours": "", "notes": "The County and City of Los Angeles are providing free meals (effective March 30, 2020) to older adults age 60 and older who are impacted by the COVID-19 Crisis. Call 1-800-510-2020 to request services. Meals are provided either at distribution sites or via home-delivered meals. We\u2019re transitioning to home-delivered meals at most locations. The map to the right has information about each site. Older adults 65 and older must send a family member, friend or caregiver who is under the age of 65 to pick up meals at their assigned site.", "name": "Plummer Village Senior Diging Center", "street": "15450 Plummer St", "city": "North Hills", "state": "CA", "zip": "91324", "full-address": "15450 Plummer St, North Hills, CA, 91324", "ig-handle": "", "twitter": "", "facebook": "", "phone": "1-800-510-2020", "website": "https://aging.lacity.org/", "email": ""}}, {"type": "Feature", "geometry": {"type": "Point", "coordinates": [-118.5018605, 34.2597433]}, "properties": {"hours": "", "notes": "The County and City of Los Angeles are providing free meals (effective March 30, 2020) to older adults age 60 and older who are impacted by the COVID-19 Crisis. Call 1-800-510-2020 to request services. Meals are provided either at distribution sites or via home-delivered meals. We\u2019re transitioning to home-delivered meals at most locations. The map to the right has information about each site. Older adults 65 and older must send a family member, friend or caregiver who is under the age of 65 to pick up meals at their assigned site.", "name": "Valley United Methodist Korean Church", "street": "10408 Balboa Blvd.", "city": "Granada Hills", "state": "CA", "zip": "91344", "full-address": "10408 Balboa Blvd., Granada Hills, CA, 91344", "ig-handle": "", "twitter": "", "facebook": "", "phone": "1-800-510-2020", "website": "https://aging.lacity.org/", "email": ""}}, {"type": "Feature", "geometry": {"type": "Point", "coordinates": [-118.4131612, 34.2762906]}, "properties": {"hours": "", "notes": "The County and City of Los Angeles are providing free meals (effective March 30, 2020) to older adults age 60 and older who are impacted by the COVID-19 Crisis. Call 1-800-510-2020 to request services. Meals are provided either at distribution sites or via home-delivered meals. We\u2019re transitioning to home-delivered meals at most locations. The map to the right has information about each site. Older adults 65 and older must send a family member, friend or caregiver who is under the age of 65 to pick up meals at their assigned site.", "name": "Alicia Broadus Duncan MPC (Dining Center)", "street": "11300 Glenoaks Blvd", "city": "Pacoima", "state": "CA", "zip": "91331", "full-address": "11300 Glenoaks Blvd, Pacoima, CA, 91331", "ig-handle": "", "twitter": "", "facebook": "", "phone": "1-800-510-2020", "website": "https://aging.lacity.org/", "email": ""}}, {"type": "Feature", "geometry": {"type": "Point", "coordinates": [-118.4360706, 34.3091233]}, "properties": {"hours": "", "notes": "The County and City of Los Angeles are providing free meals (effective March 30, 2020) to older adults age 60 and older who are impacted by the COVID-19 Crisis. Call 1-800-510-2020 to request services. Meals are provided either at distribution sites or via home-delivered meals. We\u2019re transitioning to home-delivered meals at most locations. The map to the right has information about each site. Older adults 65 and older must send a family member, friend or caregiver who is under the age of 65 to pick up meals at their assigned site.", "name": "Olive Manor/Sylmar Center Senior Site", "street": "13115 Bromont Ave", "city": "Sylmar", "state": "CA", "zip": "91342", "full-address": "13115 Bromont Ave, Sylmar, CA, 91342", "ig-handle": "", "twitter": "", "facebook": "", "phone": "1-800-510-2020", "website": "https://aging.lacity.org/", "email": ""}}, {"type": "Feature", "geometry": {"type": "Point", "coordinates": [-118.3214694, 34.26112]}, "properties": {"hours": "", "notes": "The County and City of Los Angeles are providing free meals (effective March 30, 2020) to older adults age 60 and older who are impacted by the COVID-19 Crisis. Call 1-800-510-2020 to request services. Meals are provided either at distribution sites or via home-delivered meals. We\u2019re transitioning to home-delivered meals at most locations. The map to the right has information about each site. Older adults 65 and older must send a family member, friend or caregiver who is under the age of 65 to pick up meals at their assigned site.", "name": "Sunland Senior Center", "street": "8640 Fenwick St", "city": "Sunland", "state": "CA", "zip": "91040", "full-address": "8640 Fenwick St, Sunland, CA, 91040", "ig-handle": "", "twitter": "", "facebook": "", "phone": "1-800-510-2020", "website": "https://aging.lacity.org/", "email": ""}}, {"type": "Feature", "geometry": {"type": "Point", "coordinates": [-118.3111718, 34.2600887]}, "properties": {"hours": "", "notes": "The County and City of Los Angeles are providing free meals (effective March 30, 2020) to older adults age 60 and older who are impacted by the COVID-19 Crisis. Call 1-800-510-2020 to request services. Meals are provided either at distribution sites or via home-delivered meals. We\u2019re transitioning to home-delivered meals at most locations. The map to the right has information about each site. Older adults 65 and older must send a family member, friend or caregiver who is under the age of 65 to pick up meals at their assigned site.", "name": "Burns Manor Senior Dining Center", "street": "8155 Foothill Blvd.", "city": "Sunland", "state": "CA", "zip": "91040", "full-address": "8155 Foothill Blvd., Sunland, CA, 91040", "ig-handle": "", "twitter": "", "facebook": "", "phone": "1-800-510-2020", "website": "https://aging.lacity.org/", "email": ""}}, {"type": "Feature", "geometry": {"type": "Point", "coordinates": [-118.4538745, 34.2148727]}, "properties": {"hours": "", "notes": "The County and City of Los Angeles are providing free meals (effective March 30, 2020) to older adults age 60 and older who are impacted by the COVID-19 Crisis. Call 1-800-510-2020 to request services. Meals are provided either at distribution sites or via home-delivered meals. We\u2019re transitioning to home-delivered meals at most locations. The map to the right has information about each site. Older adults 65 and older must send a family member, friend or caregiver who is under the age of 65 to pick up meals at their assigned site.", "name": "Montecito Terraces Senior Site", "street": "14726 Blythe St", "city": "Panorama City", "state": "CA", "zip": "91402", "full-address": "14726 Blythe St, Panorama City, CA, 91402", "ig-handle": "", "twitter": "", "facebook": "", "phone": "1-800-510-2020", "website": "https://aging.lacity.org/", "email": ""}}, {"type": "Feature", "geometry": {"type": "Point", "coordinates": [-118.4463236, 34.1890986]}, "properties": {"hours": "", "notes": "The County and City of Los Angeles are providing free meals (effective March 30, 2020) to older adults age 60 and older who are impacted by the COVID-19 Crisis. Call 1-800-510-2020 to request services. Meals are provided either at distribution sites or via home-delivered meals. We\u2019re transitioning to home-delivered meals at most locations. The map to the right has information about each site. Older adults 65 and older must send a family member, friend or caregiver who is under the age of 65 to pick up meals at their assigned site.", "name": "SFVIC - Bernardi MPC (Dining Site)", "street": "6514 Sylmar Ave", "city": "Van Nuys", "state": "CA", "zip": "91401", "full-address": "6514 Sylmar Ave, Van Nuys, CA, 91401", "ig-handle": "", "twitter": "", "facebook": "", "phone": "1-800-510-2020", "website": "https://aging.lacity.org/", "email": ""}}, {"type": "Feature", "geometry": {"type": "Point", "coordinates": [-118.4579893, 34.2291889]}, "properties": {"hours": "", "notes": "The County and City of Los Angeles are providing free meals (effective March 30, 2020) to older adults age 60 and older who are impacted by the COVID-19 Crisis. Call 1-800-510-2020 to request services. Meals are provided either at distribution sites or via home-delivered meals. We\u2019re transitioning to home-delivered meals at most locations. The map to the right has information about each site. Older adults 65 and older must send a family member, friend or caregiver who is under the age of 65 to pick up meals at their assigned site.", "name": "Mid-Valley Senior Citizens Center (Kester)", "street": "8801 Kester Ave", "city": "Panorama City", "state": "CA", "zip": "91402", "full-address": "8801 Kester Ave, Panorama City, CA, 91402", "ig-handle": "", "twitter": "", "facebook": "", "phone": "1-800-510-2020", "website": "https://aging.lacity.org/", "email": ""}}, {"type": "Feature", "geometry": {"type": "Point", "coordinates": [-118.4497061, 34.2336605]}, "properties": {"hours": "", "notes": "The County and City of Los Angeles are providing free meals (effective March 30, 2020) to older adults age 60 and older who are impacted by the COVID-19 Crisis. Call 1-800-510-2020 to request services. Meals are provided either at distribution sites or via home-delivered meals. We\u2019re transitioning to home-delivered meals at most locations. The map to the right has information about each site. Older adults 65 and older must send a family member, friend or caregiver who is under the age of 65 to pick up meals at their assigned site.", "name": "Casa Panorama Senior Center", "street": "14555 Osborne St", "city": "Panorama City", "state": "CA", "zip": "91402", "full-address": "14555 Osborne St, Panorama City, CA, 91402", "ig-handle": "", "twitter": "", "facebook": "", "phone": "1-800-510-2020", "website": "https://aging.lacity.org/", "email": ""}}, {"type": "Feature", "geometry": {"type": "Point", "coordinates": [-118.4554906, 34.2018308]}, "properties": {"hours": "", "notes": "The County and City of Los Angeles are providing free meals (effective March 30, 2020) to older adults age 60 and older who are impacted by the COVID-19 Crisis. Call 1-800-510-2020 to request services. Meals are provided either at distribution sites or via home-delivered meals. We\u2019re transitioning to home-delivered meals at most locations. The map to the right has information about each site. Older adults 65 and older must send a family member, friend or caregiver who is under the age of 65 to pick up meals at their assigned site.", "name": "Fickett Towers Senior Center", "street": "14801 Sherman Way", "city": "Van Nuys", "state": "CA", "zip": "91405", "full-address": "14801 Sherman Way, Van Nuys, CA, 91405", "ig-handle": "", "twitter": "", "facebook": "", "phone": "1-800-510-2020", "website": "https://aging.lacity.org/", "email": ""}}, {"type": "Feature", "geometry": {"type": "Point", "coordinates": [-118.3896096, 34.207826]}, "properties": {"hours": "", "notes": "The County and City of Los Angeles are providing free meals (effective March 30, 2020) to older adults age 60 and older who are impacted by the COVID-19 Crisis. Call 1-800-510-2020 to request services. Meals are provided either at distribution sites or via home-delivered meals. We\u2019re transitioning to home-delivered meals at most locations. The map to the right has information about each site. Older adults 65 and older must send a family member, friend or caregiver who is under the age of 65 to pick up meals at their assigned site.", "name": "Simpson Apartments Senior Center", "street": "7541 Simpson Ave", "city": "North Hollywood", "state": "CA", "zip": "91606", "full-address": "7541 Simpson Ave, North Hollywood, CA, 91606", "ig-handle": "", "twitter": "", "facebook": "", "phone": "1-800-510-2020", "website": "https://aging.lacity.org/", "email": ""}}, {"type": "Feature", "geometry": {"type": "Point", "coordinates": [-118.44838, 34.1631891]}, "properties": {"hours": "", "notes": "The County and City of Los Angeles are providing free meals (effective March 30, 2020) to older adults age 60 and older who are impacted by the COVID-19 Crisis. Call 1-800-510-2020 to request services. Meals are provided either at distribution sites or via home-delivered meals. We\u2019re transitioning to home-delivered meals at most locations. The map to the right has information about each site. Older adults 65 and older must send a family member, friend or caregiver who is under the age of 65 to pick up meals at their assigned site.", "name": "Sherman Oaks/East Valley Adult Center MPC", "street": "5056 Van Nuys Blvd", "city": "Sherman Oaks", "state": "CA", "zip": "91403", "full-address": "5056 Van Nuys Blvd, Sherman Oaks, CA, 91403", "ig-handle": "", "twitter": "", "facebook": "", "phone": "1-800-510-2020", "website": "https://aging.lacity.org/", "email": ""}}, {"type": "Feature", "geometry": {"type": "Point", "coordinates": [-118.4124111, 34.1868766]}, "properties": {"hours": "", "notes": "The County and City of Los Angeles are providing free meals (effective March 30, 2020) to older adults age 60 and older who are impacted by the COVID-19 Crisis. Call 1-800-510-2020 to request services. Meals are provided either at distribution sites or via home-delivered meals. We\u2019re transitioning to home-delivered meals at most locations. The map to the right has information about each site. Older adults 65 and older must send a family member, friend or caregiver who is under the age of 65 to pick up meals at their assigned site.", "name": "Valley Storefront Senior Center", "street": "12821 Victory Blvd", "city": "North Hollywood", "state": "CA", "zip": "91605", "full-address": "12821 Victory Blvd, North Hollywood, CA, 91605", "ig-handle": "", "twitter": "", "facebook": "", "phone": "1-800-510-2020", "website": "https://aging.lacity.org/", "email": ""}}, {"type": "Feature", "geometry": {"type": "Point", "coordinates": [-118.2814857, 34.0592783]}, "properties": {"hours": "", "notes": "The County and City of Los Angeles are providing free meals (effective March 30, 2020) to older adults age 60 and older who are impacted by the COVID-19 Crisis. Call 1-800-510-2020 to request services. Meals are provided either at distribution sites or via home-delivered meals. We\u2019re transitioning to home-delivered meals at most locations. The map to the right has information about each site. Older adults 65 and older must send a family member, friend or caregiver who is under the age of 65 to pick up meals at their assigned site.", "name": "St. Barnabas MPC (Dining Site)", "street": "675 S. Carondelet St", "city": "Los Angeles", "state": "CA", "zip": "90057", "full-address": "675 S. Carondelet St, Los Angeles, CA, 90057", "ig-handle": "", "twitter": "", "facebook": "", "phone": "1-800-510-2020", "website": "https://aging.lacity.org/", "email": ""}}, {"type": "Feature", "geometry": {"type": "Point", "coordinates": [-118.2362877, 34.0655237]}, "properties": {"hours": "", "notes": "The County and City of Los Angeles are providing free meals (effective March 30, 2020) to older adults age 60 and older who are impacted by the COVID-19 Crisis. Call 1-800-510-2020 to request services. Meals are provided either at distribution sites or via home-delivered meals. We\u2019re transitioning to home-delivered meals at most locations. The map to the right has information about each site. Older adults 65 and older must send a family member, friend or caregiver who is under the age of 65 to pick up meals at their assigned site.", "name": "The Golden Dragon Restaurant", "street": "960 N. Broadway", "city": "Los Angeles", "state": "CA", "zip": "90012", "full-address": "960 N. Broadway, Los Angeles, CA, 90012", "ig-handle": "", "twitter": "", "facebook": "", "phone": "1-800-510-2020", "website": "https://aging.lacity.org/", "email": ""}}, {"type": "Feature", "geometry": {"type": "Point", "coordinates": [-118.2906947, 34.05997]}, "properties": {"hours": "", "notes": "The County and City of Los Angeles are providing free meals (effective March 30, 2020) to older adults age 60 and older who are impacted by the COVID-19 Crisis. Call 1-800-510-2020 to request services. Meals are provided either at distribution sites or via home-delivered meals. We\u2019re transitioning to home-delivered meals at most locations. The map to the right has information about each site. Older adults 65 and older must send a family member, friend or caregiver who is under the age of 65 to pick up meals at their assigned site.", "name": "Buchun Gamjatang Restaurant", "street": "3055 W. 7th St., #C", "city": "Los Angeles", "state": "CA", "zip": "90010", "full-address": "3055 W. 7th St., #C, Los Angeles, CA, 90010", "ig-handle": "", "twitter": "", "facebook": "", "phone": "1-800-510-2020", "website": "https://aging.lacity.org/", "email": ""}}, {"type": "Feature", "geometry": {"type": "Point", "coordinates": [-118.268148, 34.0611664]}, "properties": {"hours": "", "notes": "The County and City of Los Angeles are providing free meals (effective March 30, 2020) to older adults age 60 and older who are impacted by the COVID-19 Crisis. Call 1-800-510-2020 to request services. Meals are provided either at distribution sites or via home-delivered meals. We\u2019re transitioning to home-delivered meals at most locations. The map to the right has information about each site. Older adults 65 and older must send a family member, friend or caregiver who is under the age of 65 to pick up meals at their assigned site.", "name": "Steel Plaza Senior Center", "street": "1711 W. 3rd St", "city": "Los Angeles", "state": "CA", "zip": "90017", "full-address": "1711 W. 3rd St, Los Angeles, CA, 90017", "ig-handle": "", "twitter": "", "facebook": "", "phone": "1-800-510-2020", "website": "https://aging.lacity.org/", "email": ""}}, {"type": "Feature", "geometry": {"type": "Point", "coordinates": [-118.2736331, 34.0530739]}, "properties": {"hours": "", "notes": "The County and City of Los Angeles are providing free meals (effective March 30, 2020) to older adults age 60 and older who are impacted by the COVID-19 Crisis. Call 1-800-510-2020 to request services. Meals are provided either at distribution sites or via home-delivered meals. We\u2019re transitioning to home-delivered meals at most locations. The map to the right has information about each site. Older adults 65 and older must send a family member, friend or caregiver who is under the age of 65 to pick up meals at their assigned site.", "name": "Crescent Arms Senior Center", "street": "1709 W. 8th St", "city": "Los Angeles", "state": "CA", "zip": "90017", "full-address": "1709 W. 8th St, Los Angeles, CA, 90017", "ig-handle": "", "twitter": "", "facebook": "", "phone": "1-800-510-2020", "website": "https://aging.lacity.org/", "email": ""}}, {"type": "Feature", "geometry": {"type": "Point", "coordinates": [-118.249647, 34.051813]}, "properties": {"hours": "", "notes": "The County and City of Los Angeles are providing free meals (effective March 30, 2020) to older adults age 60 and older who are impacted by the COVID-19 Crisis. Call 1-800-510-2020 to request services. Meals are provided either at distribution sites or via home-delivered meals. We\u2019re transitioning to home-delivered meals at most locations. The map to the right has information about each site. Older adults 65 and older must send a family member, friend or caregiver who is under the age of 65 to pick up meals at their assigned site.", "name": "Angelus Plaza Senior Housing", "street": "255 S. Hill St", "city": "Los Angeles", "state": "CA", "zip": "90012", "full-address": "255 S. Hill St, Los Angeles, CA, 90012", "ig-handle": "", "twitter": "", "facebook": "", "phone": "1-800-510-2020", "website": "https://aging.lacity.org/", "email": ""}}, {"type": "Feature", "geometry": {"type": "Point", "coordinates": [-118.3026775, 34.0905495]}, "properties": {"hours": "", "notes": "The County and City of Los Angeles are providing free meals (effective March 30, 2020) to older adults age 60 and older who are impacted by the COVID-19 Crisis. Call 1-800-510-2020 to request services. Meals are provided either at distribution sites or via home-delivered meals. We\u2019re transitioning to home-delivered meals at most locations. The map to the right has information about each site. Older adults 65 and older must send a family member, friend or caregiver who is under the age of 65 to pick up meals at their assigned site.", "name": "Hollywood MPC (Dining Center)", "street": "5170 W. Santa Monica Blvd", "city": "Los Angeles", "state": "CA", "zip": "90029", "full-address": "5170 W. Santa Monica Blvd, Los Angeles, CA, 90029", "ig-handle": "", "twitter": "", "facebook": "", "phone": "1-800-510-2020", "website": "https://aging.lacity.org/", "email": ""}}, {"type": "Feature", "geometry": {"type": "Point", "coordinates": [-118.3340311, 34.1521277]}, "properties": {"hours": "", "notes": "The County and City of Los Angeles are providing free meals (effective March 30, 2020) to older adults age 60 and older who are impacted by the COVID-19 Crisis. Call 1-800-510-2020 to request services. Meals are provided either at distribution sites or via home-delivered meals. We\u2019re transitioning to home-delivered meals at most locations. The map to the right has information about each site. Older adults 65 and older must send a family member, friend or caregiver who is under the age of 65 to pick up meals at their assigned site.", "name": "Griffith Park Adult Community Center (GPACC)", "street": "3203 W. Riverside Dr", "city": "Los Angeles", "state": "CA", "zip": "90026", "full-address": "3203 W. Riverside Dr, Los Angeles, CA, 90026", "ig-handle": "", "twitter": "", "facebook": "", "phone": "1-800-510-2020", "website": "https://aging.lacity.org/", "email": ""}}, {"type": "Feature", "geometry": {"type": "Point", "coordinates": [-118.3357402, 34.104835]}, "properties": {"hours": "", "notes": "The County and City of Los Angeles are providing free meals (effective March 30, 2020) to older adults age 60 and older who are impacted by the COVID-19 Crisis. Call 1-800-510-2020 to request services. Meals are provided either at distribution sites or via home-delivered meals. We\u2019re transitioning to home-delivered meals at most locations. The map to the right has information about each site. Older adults 65 and older must send a family member, friend or caregiver who is under the age of 65 to pick up meals at their assigned site.", "name": "Las Palmas Senior Center", "street": "1820 N. Las Palmas Ave", "city": "Los Angeles", "state": "CA", "zip": "90028", "full-address": "1820 N. Las Palmas Ave, Los Angeles, CA, 90028", "ig-handle": "", "twitter": "", "facebook": "", "phone": "1-800-510-2020", "website": "https://aging.lacity.org/", "email": ""}}, {"type": "Feature", "geometry": {"type": "Point", "coordinates": [-118.2587134, 34.119644]}, "properties": {"hours": "", "notes": "The County and City of Los Angeles are providing free meals (effective March 30, 2020) to older adults age 60 and older who are impacted by the COVID-19 Crisis. Call 1-800-510-2020 to request services. Meals are provided either at distribution sites or via home-delivered meals. We\u2019re transitioning to home-delivered meals at most locations. The map to the right has information about each site. Older adults 65 and older must send a family member, friend or caregiver who is under the age of 65 to pick up meals at their assigned site.", "name": "Lithuanian Cultural Center", "street": "3356 Glendale Blvd", "city": "Los Angeles", "state": "CA", "zip": "90039", "full-address": "3356 Glendale Blvd, Los Angeles, CA, 90039", "ig-handle": "", "twitter": "", "facebook": "", "phone": "1-800-510-2020", "website": "https://aging.lacity.org/", "email": ""}}, {"type": "Feature", "geometry": {"type": "Point", "coordinates": [-118.256294, 34.1168333]}, "properties": {"hours": "", "notes": "The County and City of Los Angeles are providing free meals (effective March 30, 2020) to older adults age 60 and older who are impacted by the COVID-19 Crisis. Call 1-800-510-2020 to request services. Meals are provided either at distribution sites or via home-delivered meals. We\u2019re transitioning to home-delivered meals at most locations. The map to the right has information about each site. Older adults 65 and older must send a family member, friend or caregiver who is under the age of 65 to pick up meals at their assigned site.", "name": "Atwater Park Baptist Church Senior Site", "street": "3370 Perlita Ave", "city": "Los Angeles", "state": "CA", "zip": "90039", "full-address": "3370 Perlita Ave, Los Angeles, CA, 90039", "ig-handle": "", "twitter": "", "facebook": "", "phone": "1-800-510-2020", "website": "https://aging.lacity.org/", "email": ""}}, {"type": "Feature", "geometry": {"type": "Point", "coordinates": [-118.2923103, 34.0841405]}, "properties": {"hours": "", "notes": "The County and City of Los Angeles are providing free meals (effective March 30, 2020) to older adults age 60 and older who are impacted by the COVID-19 Crisis. Call 1-800-510-2020 to request services. Meals are provided either at distribution sites or via home-delivered meals. We\u2019re transitioning to home-delivered meals at most locations. The map to the right has information about each site. Older adults 65 and older must send a family member, friend or caregiver who is under the age of 65 to pick up meals at their assigned site.", "name": "Braille Institute Senior Site", "street": "741 N. Vermont Ave", "city": "Los Angeles", "state": "CA", "zip": "90029", "full-address": "741 N. Vermont Ave, Los Angeles, CA, 90029", "ig-handle": "", "twitter": "", "facebook": "", "phone": "1-800-510-2020", "website": "https://aging.lacity.org/", "email": ""}}, {"type": "Feature", "geometry": {"type": "Point", "coordinates": [-118.2672345, 34.1337977]}, "properties": {"hours": "", "notes": "The County and City of Los Angeles are providing free meals (effective March 30, 2020) to older adults age 60 and older who are impacted by the COVID-19 Crisis. Call 1-800-510-2020 to request services. Meals are provided either at distribution sites or via home-delivered meals. We\u2019re transitioning to home-delivered meals at most locations. The map to the right has information about each site. Older adults 65 and older must send a family member, friend or caregiver who is under the age of 65 to pick up meals at their assigned site.", "name": "Chevy Chase Recreation Center", "street": "4165 Chevy Chase Blvd", "city": "Los Angeles", "state": "CA", "zip": "90039", "full-address": "4165 Chevy Chase Blvd, Los Angeles, CA, 90039", "ig-handle": "", "twitter": "", "facebook": "", "phone": "1-800-510-2020", "website": "https://aging.lacity.org/", "email": ""}}, {"type": "Feature", "geometry": {"type": "Point", "coordinates": [-118.264516, 34.0766]}, "properties": {"hours": "", "notes": "The County and City of Los Angeles are providing free meals (effective March 30, 2020) to older adults age 60 and older who are impacted by the COVID-19 Crisis. Call 1-800-510-2020 to request services. Meals are provided either at distribution sites or via home-delivered meals. We\u2019re transitioning to home-delivered meals at most locations. The map to the right has information about each site. Older adults 65 and older must send a family member, friend or caregiver who is under the age of 65 to pick up meals at their assigned site.", "name": "Echo Park Mini MPC Senior Center", "street": "1021 N. Alvarado St", "city": "Los Angeles", "state": "CA", "zip": "90026", "full-address": "1021 N. Alvarado St, Los Angeles, CA, 90026", "ig-handle": "", "twitter": "", "facebook": "", "phone": "1-800-510-2020", "website": "https://aging.lacity.org/", "email": ""}}, {"type": "Feature", "geometry": {"type": "Point", "coordinates": [-118.2053742, 34.0390179]}, "properties": {"hours": "", "notes": "The County and City of Los Angeles are providing free meals (effective March 30, 2020) to older adults age 60 and older who are impacted by the COVID-19 Crisis. Call 1-800-510-2020 to request services. Meals are provided either at distribution sites or via home-delivered meals. We\u2019re transitioning to home-delivered meals at most locations. The map to the right has information about each site. Older adults 65 and older must send a family member, friend or caregiver who is under the age of 65 to pick up meals at their assigned site.", "name": "Boyle Heights Senior Center", "street": "2839 E. 3rd St", "city": "Los Angeles", "state": "CA", "zip": "90033", "full-address": "2839 E. 3rd St, Los Angeles, CA, 90033", "ig-handle": "", "twitter": "", "facebook": "", "phone": "1-800-510-2020", "website": "https://aging.lacity.org/", "email": ""}}, {"type": "Feature", "geometry": {"type": "Point", "coordinates": [-118.2032604, 34.0957569]}, "properties": {"hours": "", "notes": "The County and City of Los Angeles are providing free meals (effective March 30, 2020) to older adults age 60 and older who are impacted by the COVID-19 Crisis. Call 1-800-510-2020 to request services. Meals are provided either at distribution sites or via home-delivered meals. We\u2019re transitioning to home-delivered meals at most locations. The map to the right has information about each site. Older adults 65 and older must send a family member, friend or caregiver who is under the age of 65 to pick up meals at their assigned site.", "name": "Montecito Heights Senior Center", "street": "4545 Homer St", "city": "Los Angeles", "state": "CA", "zip": "90031", "full-address": "4545 Homer St, Los Angeles, CA, 90031", "ig-handle": "", "twitter": "", "facebook": "", "phone": "1-800-510-2020", "website": "https://aging.lacity.org/", "email": ""}}, {"type": "Feature", "geometry": {"type": "Point", "coordinates": [-118.1795087, 34.0748378]}, "properties": {"hours": "", "notes": "The County and City of Los Angeles are providing free meals (effective March 30, 2020) to older adults age 60 and older who are impacted by the COVID-19 Crisis. Call 1-800-510-2020 to request services. Meals are provided either at distribution sites or via home-delivered meals. We\u2019re transitioning to home-delivered meals at most locations. The map to the right has information about each site. Older adults 65 and older must send a family member, friend or caregiver who is under the age of 65 to pick up meals at their assigned site.", "name": "El Sereno Senior Center", "street": "4818 E. Klamath Pl", "city": "Los Angeles", "state": "CA", "zip": "90032", "full-address": "4818 E. Klamath Pl, Los Angeles, CA, 90032", "ig-handle": "", "twitter": "", "facebook": "", "phone": "1-800-510-2020", "website": "https://aging.lacity.org/", "email": ""}}, {"type": "Feature", "geometry": {"type": "Point", "coordinates": [-118.2321038, 34.1179675]}, "properties": {"hours": "", "notes": "The County and City of Los Angeles are providing free meals (effective March 30, 2020) to older adults age 60 and older who are impacted by the COVID-19 Crisis. Call 1-800-510-2020 to request services. Meals are provided either at distribution sites or via home-delivered meals. We\u2019re transitioning to home-delivered meals at most locations. The map to the right has information about each site. Older adults 65 and older must send a family member, friend or caregiver who is under the age of 65 to pick up meals at their assigned site.", "name": "Glassell Park Community/Senior Center", "street": "3750 Verdugo Rd", "city": "Los Angeles", "state": "CA", "zip": "90065", "full-address": "3750 Verdugo Rd, Los Angeles, CA, 90065", "ig-handle": "", "twitter": "", "facebook": "", "phone": "1-800-510-2020", "website": "https://aging.lacity.org/", "email": ""}}, {"type": "Feature", "geometry": {"type": "Point", "coordinates": [-118.1850455, 34.1142166]}, "properties": {"hours": "", "notes": "The County and City of Los Angeles are providing free meals (effective March 30, 2020) to older adults age 60 and older who are impacted by the COVID-19 Crisis. Call 1-800-510-2020 to request services. Meals are provided either at distribution sites or via home-delivered meals. We\u2019re transitioning to home-delivered meals at most locations. The map to the right has information about each site. Older adults 65 and older must send a family member, friend or caregiver who is under the age of 65 to pick up meals at their assigned site.", "name": "Highland Park Senior Center", "street": "6152 N. Figueroa St", "city": "Los Angeles", "state": "CA", "zip": "90042", "full-address": "6152 N. Figueroa St, Los Angeles, CA, 90042", "ig-handle": "", "twitter": "", "facebook": "", "phone": "1-800-510-2020", "website": "https://aging.lacity.org/", "email": ""}}, {"type": "Feature", "geometry": {"type": "Point", "coordinates": [-118.2146958, 34.0725679]}, "properties": {"hours": "", "notes": "The County and City of Los Angeles are providing free meals (effective March 30, 2020) to older adults age 60 and older who are impacted by the COVID-19 Crisis. Call 1-800-510-2020 to request services. Meals are provided either at distribution sites or via home-delivered meals. We\u2019re transitioning to home-delivered meals at most locations. The map to the right has information about each site. Older adults 65 and older must send a family member, friend or caregiver who is under the age of 65 to pick up meals at their assigned site.", "name": "Lincoln Heights Senior Center", "street": "2323 Workman St", "city": "Los Angeles", "state": "CA", "zip": "90031", "full-address": "2323 Workman St, Los Angeles, CA, 90031", "ig-handle": "", "twitter": "", "facebook": "", "phone": "1-800-510-2020", "website": "https://aging.lacity.org/", "email": ""}}, {"type": "Feature", "geometry": {"type": "Point", "coordinates": [-118.2110403, 34.0207094]}, "properties": {"hours": "", "notes": "The County and City of Los Angeles are providing free meals (effective March 30, 2020) to older adults age 60 and older who are impacted by the COVID-19 Crisis. Call 1-800-510-2020 to request services. Meals are provided either at distribution sites or via home-delivered meals. We\u2019re transitioning to home-delivered meals at most locations. The map to the right has information about each site. Older adults 65 and older must send a family member, friend or caregiver who is under the age of 65 to pick up meals at their assigned site.", "name": "Costello Senior Citizen Center", "street": "3121 E. Olympic Blvd", "city": "Los Angeles", "state": "CA", "zip": "90023", "full-address": "3121 E. Olympic Blvd, Los Angeles, CA, 90023", "ig-handle": "", "twitter": "", "facebook": "", "phone": "1-800-510-2020", "website": "https://aging.lacity.org/", "email": ""}}, {"type": "Feature", "geometry": {"type": "Point", "coordinates": [-118.265926, 34.0069352]}, "properties": {"hours": "", "notes": "The County and City of Los Angeles are providing free meals (effective March 30, 2020) to older adults age 60 and older who are impacted by the COVID-19 Crisis. Call 1-800-510-2020 to request services. Meals are provided either at distribution sites or via home-delivered meals. We\u2019re transitioning to home-delivered meals at most locations. The map to the right has information about each site. Older adults 65 and older must send a family member, friend or caregiver who is under the age of 65 to pick up meals at their assigned site.", "name": "Theresa Lindsey MPC (Dining Center)", "street": "429 E. 42nd Pl", "city": "Los Angeles", "state": "CA", "zip": "90011", "full-address": "429 E. 42nd Pl, Los Angeles, CA, 90011", "ig-handle": "", "twitter": "", "facebook": "", "phone": "1-800-510-2020", "website": "https://aging.lacity.org/", "email": ""}}, {"type": "Feature", "geometry": {"type": "Point", "coordinates": [-118.283144, 33.9916865]}, "properties": {"hours": "", "notes": "The County and City of Los Angeles are providing free meals (effective March 30, 2020) to older adults age 60 and older who are impacted by the COVID-19 Crisis. Call 1-800-510-2020 to request services. Meals are provided either at distribution sites or via home-delivered meals. We\u2019re transitioning to home-delivered meals at most locations. The map to the right has information about each site. Older adults 65 and older must send a family member, friend or caregiver who is under the age of 65 to pick up meals at their assigned site.", "name": "Figueroa Senior Housing", "street": "5503 S. Figueroa St", "city": "Los Angeles", "state": "CA", "zip": "90037", "full-address": "5503 S. Figueroa St, Los Angeles, CA, 90037", "ig-handle": "", "twitter": "", "facebook": "", "phone": "1-800-510-2020", "website": "https://aging.lacity.org/", "email": ""}}, {"type": "Feature", "geometry": {"type": "Point", "coordinates": [-118.2662331, 34.0379435]}, "properties": {"hours": "", "notes": "The County and City of Los Angeles are providing free meals (effective March 30, 2020) to older adults age 60 and older who are impacted by the COVID-19 Crisis. Call 1-800-510-2020 to request services. Meals are provided either at distribution sites or via home-delivered meals. We\u2019re transitioning to home-delivered meals at most locations. The map to the right has information about each site. Older adults 65 and older must send a family member, friend or caregiver who is under the age of 65 to pick up meals at their assigned site.", "name": "Villa De La Esperanza Senior Site", "street": "1402 S. Hope St", "city": "Los Angeles", "state": "CA", "zip": "90012", "full-address": "1402 S. Hope St, Los Angeles, CA, 90012", "ig-handle": "", "twitter": "", "facebook": "", "phone": "1-800-510-2020", "website": "https://aging.lacity.org/", "email": ""}}, {"type": "Feature", "geometry": {"type": "Point", "coordinates": [-118.2472717, 33.9944301]}, "properties": {"hours": "", "notes": "The County and City of Los Angeles are providing free meals (effective March 30, 2020) to older adults age 60 and older who are impacted by the COVID-19 Crisis. Call 1-800-510-2020 to request services. Meals are provided either at distribution sites or via home-delivered meals. We\u2019re transitioning to home-delivered meals at most locations. The map to the right has information about each site. Older adults 65 and older must send a family member, friend or caregiver who is under the age of 65 to pick up meals at their assigned site.", "name": "Slauson Park Senior Site", "street": "5306 S. Compton Ave", "city": "Los Angeles", "state": "CA", "zip": "90011", "full-address": "5306 S. Compton Ave, Los Angeles, CA, 90011", "ig-handle": "", "twitter": "", "facebook": "", "phone": "1-800-510-2020", "website": "https://aging.lacity.org/", "email": ""}}, {"type": "Feature", "geometry": {"type": "Point", "coordinates": [-118.2801524, 34.0442817]}, "properties": {"hours": "", "notes": "The County and City of Los Angeles are providing free meals (effective March 30, 2020) to older adults age 60 and older who are impacted by the COVID-19 Crisis. Call 1-800-510-2020 to request services. Meals are provided either at distribution sites or via home-delivered meals. We\u2019re transitioning to home-delivered meals at most locations. The map to the right has information about each site. Older adults 65 and older must send a family member, friend or caregiver who is under the age of 65 to pick up meals at their assigned site.", "name": "Angelica Lutheran Church Senior Site", "street": "1345 S. Burlington Ave", "city": "Los Angeles", "state": "CA", "zip": "90006", "full-address": "1345 S. Burlington Ave, Los Angeles, CA, 90006", "ig-handle": "", "twitter": "", "facebook": "", "phone": "1-800-510-2020", "website": "https://aging.lacity.org/", "email": ""}}, {"type": "Feature", "geometry": {"type": "Point", "coordinates": [-118.2406473, 34.0472912]}, "properties": {"hours": "", "notes": "The County and City of Los Angeles are providing free meals (effective March 30, 2020) to older adults age 60 and older who are impacted by the COVID-19 Crisis. Call 1-800-510-2020 to request services. Meals are provided either at distribution sites or via home-delivered meals. We\u2019re transitioning to home-delivered meals at most locations. The map to the right has information about each site. Older adults 65 and older must send a family member, friend or caregiver who is under the age of 65 to pick up meals at their assigned site.", "name": "Little Tokoyo Nutrition Center", "street": "455 E. Third St", "city": "Los Angeles", "state": "CA", "zip": "90012", "full-address": "455 E. Third St, Los Angeles, CA, 90012", "ig-handle": "", "twitter": "", "facebook": "", "phone": "1-800-510-2020", "website": "https://aging.lacity.org/", "email": ""}}, {"type": "Feature", "geometry": {"type": "Point", "coordinates": [-118.2545353, 33.9355341]}, "properties": {"hours": "", "notes": "The County and City of Los Angeles are providing free meals (effective March 30, 2020) to older adults age 60 and older who are impacted by the COVID-19 Crisis. Call 1-800-510-2020 to request services. Meals are provided either at distribution sites or via home-delivered meals. We\u2019re transitioning to home-delivered meals at most locations. The map to the right has information about each site. Older adults 65 and older must send a family member, friend or caregiver who is under the age of 65 to pick up meals at their assigned site.", "name": "Bernice Watkins Dining Center", "street": "10957 S. Central Ave", "city": "Los Angeles", "state": "CA", "zip": "90059", "full-address": "10957 S. Central Ave, Los Angeles, CA, 90059", "ig-handle": "", "twitter": "", "facebook": "", "phone": "1-800-510-2020", "website": "https://aging.lacity.org/", "email": ""}}, {"type": "Feature", "geometry": {"type": "Point", "coordinates": [-118.2648767, 33.9709575]}, "properties": {"hours": "", "notes": "The County and City of Los Angeles are providing free meals (effective March 30, 2020) to older adults age 60 and older who are impacted by the COVID-19 Crisis. Call 1-800-510-2020 to request services. Meals are provided either at distribution sites or via home-delivered meals. We\u2019re transitioning to home-delivered meals at most locations. The map to the right has information about each site. Older adults 65 and older must send a family member, friend or caregiver who is under the age of 65 to pick up meals at their assigned site.", "name": "Estelle Van Meter Mini MPC", "street": "606 E. 76th St", "city": "Los Angeles", "state": "CA", "zip": "90011", "full-address": "606 E. 76th St, Los Angeles, CA, 90011", "ig-handle": "", "twitter": "", "facebook": "", "phone": "1-800-510-2020", "website": "https://aging.lacity.org/", "email": ""}}, {"type": "Feature", "geometry": {"type": "Point", "coordinates": [-118.300568, 33.9819435]}, "properties": {"hours": "", "notes": "The County and City of Los Angeles are providing free meals (effective March 30, 2020) to older adults age 60 and older who are impacted by the COVID-19 Crisis. Call 1-800-510-2020 to request services. Meals are provided either at distribution sites or via home-delivered meals. We\u2019re transitioning to home-delivered meals at most locations. The map to the right has information about each site. Older adults 65 and older must send a family member, friend or caregiver who is under the age of 65 to pick up meals at their assigned site.", "name": "Normandie Apartments Senior Center", "street": "6301 S. Normandie Ave", "city": "Los Angeles", "state": "CA", "zip": "90047", "full-address": "6301 S. Normandie Ave, Los Angeles, CA, 90047", "ig-handle": "", "twitter": "", "facebook": "", "phone": "1-800-510-2020", "website": "https://aging.lacity.org/", "email": ""}}, {"type": "Feature", "geometry": {"type": "Point", "coordinates": [-118.2457489, 33.9453498]}, "properties": {"hours": "", "notes": "The County and City of Los Angeles are providing free meals (effective March 30, 2020) to older adults age 60 and older who are impacted by the COVID-19 Crisis. Call 1-800-510-2020 to request services. Meals are provided either at distribution sites or via home-delivered meals. We\u2019re transitioning to home-delivered meals at most locations. The map to the right has information about each site. Older adults 65 and older must send a family member, friend or caregiver who is under the age of 65 to pick up meals at their assigned site.", "name": "St. Lawerance of Brindisi Church Senior Site", "street": "10044 Compton Ave", "city": "Los Angeles", "state": "CA", "zip": "90002", "full-address": "10044 Compton Ave, Los Angeles, CA, 90002", "ig-handle": "", "twitter": "", "facebook": "", "phone": "1-800-510-2020", "website": "https://aging.lacity.org/", "email": ""}}, {"type": "Feature", "geometry": {"type": "Point", "coordinates": [-118.2440986, 33.9428274]}, "properties": {"hours": "", "notes": "The County and City of Los Angeles are providing free meals (effective March 30, 2020) to older adults age 60 and older who are impacted by the COVID-19 Crisis. Call 1-800-510-2020 to request services. Meals are provided either at distribution sites or via home-delivered meals. We\u2019re transitioning to home-delivered meals at most locations. The map to the right has information about each site. Older adults 65 and older must send a family member, friend or caregiver who is under the age of 65 to pick up meals at their assigned site.", "name": "Alice Manor Senior Housing", "street": "10325 Grandee Ave", "city": "Los Angeles", "state": "CA", "zip": "90002", "full-address": "10325 Grandee Ave, Los Angeles, CA, 90002", "ig-handle": "", "twitter": "", "facebook": "", "phone": "1-800-510-2020", "website": "https://aging.lacity.org/", "email": ""}}, {"type": "Feature", "geometry": {"type": "Point", "coordinates": [-118.2439367, 33.9464267]}, "properties": {"hours": "", "notes": "The County and City of Los Angeles are providing free meals (effective March 30, 2020) to older adults age 60 and older who are impacted by the COVID-19 Crisis. Call 1-800-510-2020 to request services. Meals are provided either at distribution sites or via home-delivered meals. We\u2019re transitioning to home-delivered meals at most locations. The map to the right has information about each site. Older adults 65 and older must send a family member, friend or caregiver who is under the age of 65 to pick up meals at their assigned site.", "name": "Watts Recreation Senior Center", "street": "1657 East Century Blvd", "city": "Los Angeles", "state": "CA", "zip": "90002", "full-address": "1657 East Century Blvd, Los Angeles, CA, 90002", "ig-handle": "", "twitter": "", "facebook": "", "phone": "1-800-510-2020", "website": "https://aging.lacity.org/", "email": ""}}, {"type": "Feature", "geometry": {"type": "Point", "coordinates": [-117.9044864, 34.1351998]}, "properties": {"hours": "Twice a week", "notes": "Frozen Meals", "name": "Azusa Senior Center", "street": "740 N Dalton Ave", "city": "Azusa", "state": "CA", "zip": "91702", "full-address": "740 N Dalton Ave, Azusa, CA, 91702", "ig-handle": "", "twitter": "", "facebook": "", "phone": "(626) 812-5204 x5355", "website": "https://aging.lacity.org/", "email": ""}}, {"type": "Feature", "geometry": {"type": "Point", "coordinates": [-117.7145101, 34.0883474]}, "properties": {"hours": "Twice a week", "notes": "Combination of Meals", "name": "Blaisdell Senior Center", "street": "440 S College Avenue", "city": "Claremont", "state": "CA", "zip": "91711", "full-address": "440 S College Avenue, Claremont, CA, 91711", "ig-handle": "", "twitter": "", "facebook": "", "phone": "(909) 399-5367", "website": "https://aging.lacity.org/", "email": ""}}, {"type": "Feature", "geometry": {"type": "Point", "coordinates": [-117.728539, 34.099539]}, "properties": {"hours": "Twice a week", "notes": "Combination of Meals", "name": "Joslyn Center", "street": "660 N Mountain Ave", "city": "Claremont", "state": "CA", "zip": "91711", "full-address": "660 N Mountain Ave, Claremont, CA, 91711", "ig-handle": "", "twitter": "", "facebook": "", "phone": "(909)399-5488", "website": "https://aging.lacity.org/", "email": ""}}, {"type": "Feature", "geometry": {"type": "Point", "coordinates": [-118.0354841, 34.0650022]}, "properties": {"hours": "Twice a week", "notes": "Frozen Meals", "name": "Jack Crippen Multipurpose Senior Center", "street": "3120 N Tyler Avenue", "city": "El Monte", "state": "CA", "zip": "91731", "full-address": "3120 N Tyler Avenue, El Monte, CA, 91731", "ig-handle": "", "twitter": "", "facebook": "", "phone": "(626) 580-2210", "website": "https://aging.lacity.org/", "email": ""}}, {"type": "Feature", "geometry": {"type": "Point", "coordinates": [-118.1462674, 33.9609733]}, "properties": {"hours": "Twice a week", "notes": "Combination of Meals", "name": "Bell Gardens Nutrition Site", "street": "6722 Clara St", "city": "Bell Gardens", "state": "CA", "zip": "90201", "full-address": "6722 Clara St, Bell Gardens, CA, 90201", "ig-handle": "", "twitter": "", "facebook": "", "phone": "(562) 334-1779", "website": "https://aging.lacity.org/", "email": ""}}, {"type": "Feature", "geometry": {"type": "Point", "coordinates": [-118.1909796, 33.9698108]}, "properties": {"hours": "Twice a week", "notes": "Combination of Meals", "name": "Bell Senior Center-Phillip Murray Place", "street": "4324 Florence Ave", "city": "Bell", "state": "CA", "zip": "90201", "full-address": "4324 Florence Ave, Bell, CA, 90201", "ig-handle": "", "twitter": "", "facebook": "", "phone": "(323)771-1779", "website": "https://aging.lacity.org/", "email": ""}}, {"type": "Feature", "geometry": {"type": "Point", "coordinates": [-118.1559248, 34.0002722]}, "properties": {"hours": "Twice a week", "notes": "Combination of Meals", "name": "Commerce Senior Center", "street": "2555 Commerce Way", "city": "Commerce", "state": "CA", "zip": "90040", "full-address": "2555 Commerce Way, Commerce, CA, 90040", "ig-handle": "", "twitter": "", "facebook": "", "phone": "(323) 887-4430", "website": "https://aging.lacity.org/", "email": ""}}, {"type": "Feature", "geometry": {"type": "Point", "coordinates": [-118.1810626, 33.9658212]}, "properties": {"hours": "Twice a week", "notes": "Combination of Meals", "name": "Cudahy Senior Center", "street": "4835 Clara St", "city": "Cudahy", "state": "CA", "zip": "90201", "full-address": "4835 Clara St, Cudahy, CA, 90201", "ig-handle": "", "twitter": "", "facebook": "", "phone": "(323) 771-2041", "website": "https://aging.lacity.org/", "email": ""}}, {"type": "Feature", "geometry": {"type": "Point", "coordinates": [-118.2224634, 33.8986956]}, "properties": {"hours": "Twice a week", "notes": "Combination of Meals", "name": "Dollarhide Neighborhood Center", "street": "301 N Tamarind Ave", "city": "Compton", "state": "CA", "zip": "90220", "full-address": "301 N Tamarind Ave, Compton, CA, 90220", "ig-handle": "", "twitter": "", "facebook": "", "phone": "(310) 605-5888", "website": "https://aging.lacity.org/", "email": ""}}, {"type": "Feature", "geometry": {"type": "Point", "coordinates": [-118.1792959, 34.0371502]}, "properties": {"hours": "Twice a week", "notes": "Combination of Meals", "name": "East Los Angeles Service Center", "street": "133 N Sunol Drive", "city": "Los Angeles", "state": "CA", "zip": "90063", "full-address": "133 N Sunol Drive, Los Angeles, CA, 90063", "ig-handle": "", "twitter": "", "facebook": "", "phone": "(323) 260-2801", "website": "https://aging.lacity.org/", "email": ""}}, {"type": "Feature", "geometry": {"type": "Point", "coordinates": [-118.2480026, 33.9678115]}, "properties": {"hours": "Twice a week", "notes": "Combination of Meals", "name": "Florence Firestone Senior Center", "street": "7807 S Compton Ave", "city": "Los Angeles", "state": "CA", "zip": "90001", "full-address": "7807 S Compton Ave, Los Angeles, CA, 90001", "ig-handle": "", "twitter": "", "facebook": "", "phone": "(562) 586-6502", "website": "https://aging.lacity.org/", "email": ""}}, {"type": "Feature", "geometry": {"type": "Point", "coordinates": [-118.1452736, 33.960808]}, "properties": {"hours": "Twice a week", "notes": "Combination of Meals", "name": "Human Services Association ADCRC", "street": "6800 Florence Ave", "city": "Bell Gardens", "state": "CA", "zip": "90201", "full-address": "6800 Florence Ave, Bell Gardens, CA, 90201", "ig-handle": "", "twitter": "", "facebook": "", "phone": "(562) 806-5400 x 154", "website": "https://aging.lacity.org/", "email": ""}}, {"type": "Feature", "geometry": {"type": "Point", "coordinates": [-118.2043617, 33.9749482]}, "properties": {"hours": "Twice a week", "notes": "Combination of Meals", "name": "Huntington Park Community Services", "street": "6925 Salt Lake Ave", "city": "Huntington Park", "state": "CA", "zip": "90255", "full-address": "6925 Salt Lake Ave, Huntington Park, CA, 90255", "ig-handle": "", "twitter": "", "facebook": "", "phone": "(323) 584-6218", "website": "https://aging.lacity.org/", "email": ""}}, {"type": "Feature", "geometry": {"type": "Point", "coordinates": [-118.1781833, 33.9875748]}, "properties": {"hours": "Twice a week", "notes": "Combination of Meals", "name": "Maywood Senior Center", "street": "4801 E 58th St", "city": "Maywood", "state": "CA", "zip": "90270", "full-address": "4801 E 58th St, Maywood, CA, 90270", "ig-handle": "", "twitter": "", "facebook": "", "phone": "(323) 562-7043", "website": "https://aging.lacity.org/", "email": ""}}, {"type": "Feature", "geometry": {"type": "Point", "coordinates": [-118.190231, 34.0230954]}, "properties": {"hours": "Twice a week", "notes": "Combination of Meals", "name": "Salazar Park Senior Center", "street": "3864 E Whittier Blvd", "city": "Los Angeles", "state": "CA", "zip": "90023", "full-address": "3864 E Whittier Blvd, Los Angeles, CA, 90023", "ig-handle": "", "twitter": "", "facebook": "", "phone": "(323) 266-3100", "website": "https://aging.lacity.org/", "email": ""}}, {"type": "Feature", "geometry": {"type": "Point", "coordinates": [-118.1857188, 33.9426749]}, "properties": {"hours": "Twice a week", "notes": "Combination of Meals", "name": "South Gate Senior Center", "street": "4855 Tweedy Blvd", "city": "South Gate", "state": "CA", "zip": "90280", "full-address": "4855 Tweedy Blvd, South Gate, CA, 90280", "ig-handle": "", "twitter": "", "facebook": "", "phone": "(323) 563-6202", "website": "https://aging.lacity.org/", "email": ""}}, {"type": "Feature", "geometry": {"type": "Point", "coordinates": [-118.1794173, 34.0167151]}, "properties": {"hours": "Twice a week", "notes": "Combination of Meals", "name": "YWCA Greater Los Angeles Empowerment Center", "street": "4315 Union Pacific Ave", "city": "Los Angeles", "state": "CA", "zip": "90023", "full-address": "4315 Union Pacific Ave, Los Angeles, CA, 90023", "ig-handle": "", "twitter": "", "facebook": "", "phone": "(323) 415-6057", "website": "https://aging.lacity.org/", "email": ""}}, {"type": "Feature", "geometry": {"type": "Point", "coordinates": [-118.225517, 33.971112]}, "properties": {"hours": "Twice a week", "notes": "Combination of Meals", "name": "YWCA Greater Los Angeles Empowerment Center", "street": "7515 Pacific Blvd", "city": "Walnut Park", "state": "CA", "zip": "90255", "full-address": "7515 Pacific Blvd, Walnut Park, CA, 90255", "ig-handle": "", "twitter": "", "facebook": "", "phone": "(213) 516-3575", "website": "https://aging.lacity.org/", "email": ""}}, {"type": "Feature", "geometry": {"type": "Point", "coordinates": [-117.7417321, 34.0902594]}, "properties": {"hours": "Twice a week", "notes": "Combination of Meals", "name": "Palomares Park Senior Center", "street": "499 E Arrow Hwy", "city": "Pomona", "state": "CA", "zip": "91767", "full-address": "499 E Arrow Hwy, Pomona, CA, 91767", "ig-handle": "", "twitter": "", "facebook": "", "phone": "(909) 620-2324", "website": "https://aging.lacity.org/", "email": ""}}, {"type": "Feature", "geometry": {"type": "Point", "coordinates": [-117.7395135, 34.0485973]}, "properties": {"hours": "Twice a week", "notes": "Combination of Meals", "name": "Washington Park Community Center", "street": "865 E Grand Ave", "city": "Pomona", "state": "CA", "zip": "91766", "full-address": "865 E Grand Ave, Pomona, CA, 91766", "ig-handle": "", "twitter": "", "facebook": "", "phone": "(909) 620-2305", "website": "https://aging.lacity.org/", "email": ""}}, {"type": "Feature", "geometry": {"type": "Point", "coordinates": [-117.9632144, 34.0868162]}, "properties": {"hours": "Once a week", "notes": "Frozen Meals\u00c2", "name": "Baldwin Park Community-Senior Center", "street": "4100 Baldwin Park Blvd", "city": "Baldwin Park", "state": "CA", "zip": "91706", "full-address": "4100 Baldwin Park Blvd, Baldwin Park, CA, 91706", "ig-handle": "", "twitter": "", "facebook": "", "phone": "(626) 214- 9444", "website": "https://aging.lacity.org/", "email": ""}}, {"type": "Feature", "geometry": {"type": "Point", "coordinates": [-117.986823, 34.051539]}, "properties": {"hours": "Twice a week", "notes": "Combination of Meals", "name": "Bassett Park Senior Center", "street": "510 Vineland Avenue", "city": "La Puente", "state": "CA", "zip": "91744", "full-address": "510 Vineland Avenue, La Puente, CA, 91744", "ig-handle": "", "twitter": "", "facebook": "", "phone": "(626) 214- 9445", "website": "https://aging.lacity.org/", "email": ""}}, {"type": "Feature", "geometry": {"type": "Point", "coordinates": [-117.9487438, 34.0203511]}, "properties": {"hours": "Twice a week", "notes": "Combination of Meals", "name": "La Puente Senior Center", "street": "16001 Main Street", "city": "LA Puente", "state": "CA", "zip": "91744", "full-address": "16001 Main Street, LA Puente, CA, 91744", "ig-handle": "", "twitter": "", "facebook": "", "phone": "(626) 214- 9451", "website": "https://aging.lacity.org/", "email": ""}}, {"type": "Feature", "geometry": {"type": "Point", "coordinates": [-118.1280862, 34.0657056]}, "properties": {"hours": "Twice a week", "notes": "Combination of Meals", "name": "Langley Senior Center", "street": "400 W Emerson Avenue", "city": "Monterey Park", "state": "CA", "zip": "91754", "full-address": "400 W Emerson Avenue, Monterey Park, CA, 91754", "ig-handle": "", "twitter": "", "facebook": "", "phone": "(626) 214- 9453", "website": "https://aging.lacity.org/", "email": ""}}, {"type": "Feature", "geometry": {"type": "Point", "coordinates": [-118.1145995, 34.0103573]}, "properties": {"hours": "Twice a week", "notes": "Combination of Meals", "name": "Montebello Senior Center", "street": "115 S Taylor Avenue", "city": "Montebello", "state": "CA", "zip": "90640", "full-address": "115 S Taylor Avenue, Montebello, CA, 90640", "ig-handle": "", "twitter": "", "facebook": "", "phone": "(626) 214- 9455", "website": "https://aging.lacity.org/", "email": ""}}, {"type": "Feature", "geometry": {"type": "Point", "coordinates": [-118.1614955, 34.0433154]}, "properties": {"hours": "Twice a week", "notes": "Combination of Meals", "name": "Nueva Maravilla Senior Cafe", "street": "4848 Colonia de las Rosas", "city": "East Los Angeles", "state": "CA", "zip": "90022", "full-address": "4848 Colonia de las Rosas, East Los Angeles, CA, 90022", "ig-handle": "", "twitter": "", "facebook": "", "phone": "(626) 214- 9456", "website": "https://aging.lacity.org/", "email": ""}}, {"type": "Feature", "geometry": {"type": "Point", "coordinates": [-118.0944591, 34.0434155]}, "properties": {"hours": "Twice a week", "notes": "Combination of Meals", "name": "Potrero Heights Park and Community Senior Center", "street": "8051 Arroyo Drive", "city": "Montebello", "state": "CA", "zip": "90640", "full-address": "8051 Arroyo Drive, Montebello, CA, 90640", "ig-handle": "", "twitter": "", "facebook": "", "phone": "(626) 214- 9458", "website": "https://aging.lacity.org/", "email": ""}}, {"type": "Feature", "geometry": {"type": "Point", "coordinates": [-117.8416288, 34.0267456]}, "properties": {"hours": "Twice a week", "notes": "Combination of Meals", "name": "Walnut Senior Center", "street": "21215 La Puente Rd", "city": "Walnut", "state": "CA", "zip": "91789", "full-address": "21215 La Puente Rd, Walnut, CA, 91789", "ig-handle": "", "twitter": "", "facebook": "", "phone": "(626) 214- 9465", "website": "https://aging.lacity.org/", "email": ""}}, {"type": "Feature", "geometry": {"type": "Point", "coordinates": [-118.0461903, 34.0445968]}, "properties": {"hours": "Twice a week", "notes": "Combination of Meals", "name": "South El Monte Senior Center", "street": "1415 Santa Anita Ave", "city": "South El Monte", "state": "CA", "zip": "91733", "full-address": "1415 Santa Anita Ave, South El Monte, CA, 91733", "ig-handle": "", "twitter": "", "facebook": "", "phone": "(626) 448-0131 x3253", "website": "https://aging.lacity.org/", "email": ""}}, {"type": "Feature", "geometry": {"type": "Point", "coordinates": [-118.0876689, 33.990128]}, "properties": {"hours": "Twice a week", "notes": "Combination of Meals", "name": "Pico Rivera Senior Center", "street": "9200 Mines Avenue", "city": "Pico Rivera", "state": "CA", "zip": "90650", "full-address": "9200 Mines Avenue, Pico Rivera, CA, 90650", "ig-handle": "", "twitter": "", "facebook": "", "phone": "(562) 801-4400", "website": "https://aging.lacity.org/", "email": ""}}, {"type": "Feature", "geometry": {"type": "Point", "coordinates": [-117.8914864, 34.0649491]}, "properties": {"hours": "Daily", "notes": "Boxed meals", "name": "West Covina Senior Center", "street": "2501 E Cortez", "city": "West Covina", "state": "CA", "zip": "91791", "full-address": "2501 E Cortez, West Covina, CA, 91791", "ig-handle": "", "twitter": "", "facebook": "", "phone": "(626) 331-5366", "website": "https://aging.lacity.org/", "email": ""}}, {"type": "Feature", "geometry": {"type": "Point", "coordinates": [-118.4031826, 34.0138985]}, "properties": {"hours": "Twice a week", "notes": "Combination of Meals", "name": "Culver City Senior Center", "street": "4095 Overland Ave", "city": "Culver City", "state": "CA", "zip": "90232", "full-address": "4095 Overland Ave, Culver City, CA, 90232", "ig-handle": "", "twitter": "", "facebook": "", "phone": "(310) 253-6712", "website": "https://aging.lacity.org/", "email": ""}}, {"type": "Feature", "geometry": {"type": "Point", "coordinates": [-118.3542165, 33.8985129]}, "properties": {"hours": "Twice a week", "notes": "Frozen Meals", "name": "Lawndale Senior Center", "street": "14700 Burin Ave", "city": "Lawndale", "state": "CA", "zip": "90260", "full-address": "14700 Burin Ave, Lawndale, CA, 90260", "ig-handle": "", "twitter": "", "facebook": "", "phone": "(310) 973-3270", "website": "https://aging.lacity.org/", "email": ""}}, {"type": "Feature", "geometry": {"type": "Point", "coordinates": [-118.3065755, 33.8832914]}, "properties": {"hours": "Twice a week", "notes": "Frozen Meals", "name": "Nakaoka Community Center", "street": "1670 W 162nd Street", "city": "Gardena", "state": "CA", "zip": "90247", "full-address": "1670 W 162nd Street, Gardena, CA, 90247", "ig-handle": "", "twitter": "", "facebook": "", "phone": "(310) 217-9552", "website": "https://aging.lacity.org/", "email": ""}}, {"type": "Feature", "geometry": {"type": "Point", "coordinates": [-118.317788, 33.9165022]}, "properties": {"hours": "Twice a week", "notes": "Frozen Meals", "name": "Rowely Park", "street": "13220 S Van Ness Ave", "city": "Gardena", "state": "CA", "zip": "90249", "full-address": "13220 S Van Ness Ave, Gardena, CA, 90249", "ig-handle": "", "twitter": "", "facebook": "", "phone": "(310) 217-9555", "website": "https://aging.lacity.org/", "email": ""}}, {"type": "Feature", "geometry": {"type": "Point", "coordinates": [-118.3269262, 33.8995801]}, "properties": {"hours": "twice a week", "notes": "Frozen Meals", "name": "Senior Citizen's Day Care Center", "street": "14517 Crenshaw Blvd", "city": "Gardena", "state": "CA", "zip": "90249", "full-address": "14517 Crenshaw Blvd, Gardena, CA, 90249", "ig-handle": "", "twitter": "", "facebook": "", "phone": "(310) 217-9550", "website": "https://aging.lacity.org/", "email": ""}}, {"type": "Feature", "geometry": {"type": "Point", "coordinates": [-118.1982913, 33.9259888]}, "properties": {"hours": "Twice a week", "notes": "Combination of Meals", "name": "Lynwood Senior Center", "street": "11329 Ernestine Ave", "city": "Lynwood", "state": "CA", "zip": "90262", "full-address": "11329 Ernestine Ave, Lynwood, CA, 90262", "ig-handle": "", "twitter": "", "facebook": "", "phone": "(310) 886-0416", "website": "https://aging.lacity.org/", "email": ""}}, {"type": "Feature", "geometry": {"type": "Point", "coordinates": [-118.2427462, 33.9697467]}, "properties": {"hours": "Twice a week", "notes": "Combination of Meals", "name": "Roosevelt Park", "street": "7600 Graham Avenue", "city": "Los Angeles", "state": "CA", "zip": "90001", "full-address": "7600 Graham Avenue, Los Angeles, CA, 90001", "ig-handle": "", "twitter": "", "facebook": "", "phone": "(323) 586-6222", "website": "https://aging.lacity.org/", "email": ""}}, {"type": "Feature", "geometry": {"type": "Point", "coordinates": [-118.2722819, 33.9149855]}, "properties": {"hours": "Twice a week", "notes": "Combination of Meals", "name": "Willowbrook Senior Center", "street": "12915 Jarvis Ave", "city": "Los Angeles", "state": "CA", "zip": "90061", "full-address": "12915 Jarvis Ave, Los Angeles, CA, 90061", "ig-handle": "", "twitter": "", "facebook": "", "phone": "(310) 217-5650", "website": "https://aging.lacity.org/", "email": ""}}, {"type": "Feature", "geometry": {"type": "Point", "coordinates": [-118.341824, 33.9167845]}, "properties": {"hours": "Daily", "notes": "Frozen Meals", "name": "Hawthorne Senior Center *", "street": "3901 El Segundo Blvd", "city": "Hawthorne", "state": "CA", "zip": "90250", "full-address": "3901 El Segundo Blvd, Hawthorne, CA, 90250", "ig-handle": "", "twitter": "", "facebook": "", "phone": "(310) 349-1652", "website": "https://aging.lacity.org/", "email": ""}}, {"type": "Feature", "geometry": {"type": "Point", "coordinates": [-118.350823, 33.963456]}, "properties": {"hours": "Daily", "notes": "Frozen Meals", "name": "Inglewood Senior Center", "street": "111 North Locust Street", "city": "Inglewood", "state": "CA", "zip": "90302", "full-address": "111 North Locust Street, Inglewood, CA, 90302", "ig-handle": "", "twitter": "", "facebook": "", "phone": "(310) 412-4362", "website": "https://aging.lacity.org/", "email": ""}}, {"type": "Feature", "geometry": {"type": "Point", "coordinates": [-118.3588415, 33.9373949]}, "properties": {"hours": "Daily", "notes": "Frozen Meals", "name": "Lennox Park Senior Center *", "street": "10828 Condon Ave", "city": "Lennox", "state": "CA", "zip": "90304", "full-address": "10828 Condon Ave, Lennox, CA, 90304", "ig-handle": "", "twitter": "", "facebook": "", "phone": "(310) 349-5439", "website": "https://aging.lacity.org/", "email": ""}}, {"type": "Feature", "geometry": {"type": "Point", "coordinates": [-118.3595491, 33.9837606]}, "properties": {"hours": "Daily", "notes": "Frozen Meals", "name": "Yvonne B. Burke Senior and Community Center (Ladera Park) *", "street": "4750 W 62nd St", "city": "Los Angeles", "state": "CA", "zip": "90056", "full-address": "4750 W 62nd St, Los Angeles, CA, 90056", "ig-handle": "", "twitter": "", "facebook": "", "phone": "(323) 298-6039", "website": "https://aging.lacity.org/", "email": ""}}, {"type": "Feature", "geometry": {"type": "Point", "coordinates": [-118.2613418, 33.832846]}, "properties": {"hours": "Once a week", "notes": "Frozen Meals", "name": "Carson Community Center", "street": "801 E Carson Street", "city": "Carson", "state": "CA", "zip": "90745", "full-address": "801 E Carson Street, Carson, CA, 90745", "ig-handle": "", "twitter": "", "facebook": "", "phone": "(310) 835-0212 x 2783", "website": "https://aging.lacity.org/", "email": ""}}, {"type": "Feature", "geometry": {"type": "Point", "coordinates": [-118.4059956, 34.0575156]}, "properties": {"hours": "Twice a week", "notes": "Combination of Meals", "name": "Roxbury Park Community Center", "street": "471 S Roxbury Drive", "city": "Beverly Hills", "state": "CA", "zip": "90212", "full-address": "471 S Roxbury Drive, Beverly Hills, CA, 90212", "ig-handle": "", "twitter": "", "facebook": "", "phone": "(310) 285-6844", "website": "https://aging.lacity.org/", "email": ""}}, {"type": "Feature", "geometry": {"type": "Point", "coordinates": [-118.3611242, 34.0922373]}, "properties": {"hours": "Daily", "notes": "Frozen Meals", "name": "Fairfax Towers", "street": "1222 N Fairfax Ave", "city": "West Hollywood", "state": "CA", "zip": "90069", "full-address": "1222 N Fairfax Ave, West Hollywood, CA, 90069", "ig-handle": "", "twitter": "", "facebook": "", "phone": "(323) 937-5843", "website": "https://aging.lacity.org/", "email": ""}}, {"type": "Feature", "geometry": {"type": "Point", "coordinates": [-118.350834, 34.0914637]}, "properties": {"hours": "Daily", "notes": "Frozen Meals", "name": "Plummer Park", "street": "7377 Santa Monica Blvd", "city": "West Hollywood", "state": "CA", "zip": "90046", "full-address": "7377 Santa Monica Blvd, West Hollywood, CA, 90046", "ig-handle": "", "twitter": "", "facebook": "", "phone": "(323) 848-6580", "website": "https://aging.lacity.org/", "email": ""}}, {"type": "Feature", "geometry": {"type": "Point", "coordinates": [-118.4494565, 34.2855269]}, "properties": {"hours": "Twice a week", "notes": "Combination of Meals", "name": "Las Palmas Park", "street": "505 S Huntington St", "city": "San Fernando", "state": "CA", "zip": "91340", "full-address": "505 S Huntington St, San Fernando, CA, 91340", "ig-handle": "", "twitter": "", "facebook": "", "phone": "(626) 214- 9454", "website": "https://aging.lacity.org/", "email": ""}}, {"type": "Feature", "geometry": {"type": "Point", "coordinates": [-118.0789522, 33.8603929]}, "properties": {"hours": "Twice a week", "notes": "Combination of Meals", "name": "Artesia Albert Little Community Center", "street": "18750 Clarkdale Ave", "city": "Artesia", "state": "CA", "zip": "90701", "full-address": "18750 Clarkdale Ave, Artesia, CA, 90701", "ig-handle": "", "twitter": "", "facebook": "", "phone": "(562)924-6509", "website": "https://aging.lacity.org/", "email": ""}}, {"type": "Feature", "geometry": {"type": "Point", "coordinates": [-118.1330234, 33.8831295]}, "properties": {"hours": "Twice a week", "notes": "Combination of Meals", "name": "Bellflower Senior Center", "street": "16614 S Clark Ave", "city": "Bellflower", "state": "CA", "zip": "90706", "full-address": "16614 S Clark Ave, Bellflower, CA, 90706", "ig-handle": "", "twitter": "", "facebook": "", "phone": "(562) 866-7510", "website": "https://aging.lacity.org/", "email": ""}}, {"type": "Feature", "geometry": {"type": "Point", "coordinates": [-118.1803313, 33.786767]}, "properties": {"hours": "Twice a week", "notes": "Combination of Meals", "name": "California Recreation Community Center-Cambodian Senior Center", "street": "1550 Martin Luther King Blvd", "city": "Long Beach", "state": "CA", "zip": "90813", "full-address": "1550 Martin Luther King Blvd, Long Beach, CA, 90813", "ig-handle": "", "twitter": "", "facebook": "", "phone": "(562) 599-7165", "website": "https://aging.lacity.org/", "email": ""}}, {"type": "Feature", "geometry": {"type": "Point", "coordinates": [-118.0685085, 33.8580903]}, "properties": {"hours": "Twice a week", "notes": "Combination of Meals", "name": "Cerritos Senior Center", "street": "12340 South St", "city": "Cerritos", "state": "CA", "zip": "90703", "full-address": "12340 South St, Cerritos, CA, 90703", "ig-handle": "", "twitter": "", "facebook": "", "phone": "(562) 916-8555", "website": "https://aging.lacity.org/", "email": ""}}, {"type": "Feature", "geometry": {"type": "Point", "coordinates": [-118.1540965, 33.9282516]}, "properties": {"hours": "Twice a week", "notes": "Combination of Meals", "name": "Downey Community Senior Center", "street": "7810 Quill Dr", "city": "Downey", "state": "CA", "zip": "90242", "full-address": "7810 Quill Dr, Downey, CA, 90242", "ig-handle": "", "twitter": "", "facebook": "", "phone": "(562) 862-8800", "website": "https://aging.lacity.org/", "email": ""}}, {"type": "Feature", "geometry": {"type": "Point", "coordinates": [-118.0981399, 33.8073279]}, "properties": {"hours": "Twice a week", "notes": "Combination of Meals", "name": "El Dorado Park", "street": "2800 Studebaker Road", "city": "Long Beach", "state": "CA", "zip": "90815", "full-address": "2800 Studebaker Road, Long Beach, CA, 90815", "ig-handle": "", "twitter": "", "facebook": "", "phone": "(562) 429-4283", "website": "https://aging.lacity.org/", "email": ""}}, {"type": "Feature", "geometry": {"type": "Point", "coordinates": [-118.0822672, 33.8289996]}, "properties": {"hours": "Twice a week", "notes": "Combination of Meals", "name": "Hawaiian Gardens Senior Center", "street": "21815 Pioneer Blvd", "city": "Hawaiian Gardens", "state": "CA", "zip": "90716", "full-address": "21815 Pioneer Blvd, Hawaiian Gardens, CA, 90716", "ig-handle": "", "twitter": "", "facebook": "", "phone": "(652) 420-2641 x 238", "website": "https://aging.lacity.org/", "email": ""}}, {"type": "Feature", "geometry": {"type": "Point", "coordinates": [-118.1824742, 33.8704432]}, "properties": {"hours": "Twice a week", "notes": "Combination of Meals", "name": "Houghton Nutrition Site", "street": "6301 Myrtle Ave", "city": "Long Beach", "state": "CA", "zip": "90805", "full-address": "6301 Myrtle Ave, Long Beach, CA, 90805", "ig-handle": "", "twitter": "", "facebook": "", "phone": "(562) 428-6538", "website": "https://aging.lacity.org/", "email": ""}}, {"type": "Feature", "geometry": {"type": "Point", "coordinates": [-118.1769037, 33.771272]}, "properties": {"hours": "Twice a week", "notes": "Combination of Meals", "name": "Long Beach Senior Center", "street": "1150 E 4th St", "city": "Long Beach", "state": "CA", "zip": "90802", "full-address": "1150 E 4th St, Long Beach, CA, 90802", "ig-handle": "", "twitter": "", "facebook": "", "phone": "(562) 570-3520", "website": "https://aging.lacity.org/", "email": ""}}, {"type": "Feature", "geometry": {"type": "Point", "coordinates": [-118.1579834, 33.9012323]}, "properties": {"hours": "Twice a week", "notes": "Combination of Meals", "name": "Paramount Senior Center", "street": "14400 Paramount Blvd", "city": "Paramount", "state": "CA", "zip": "90723", "full-address": "14400 Paramount Blvd, Paramount, CA, 90723", "ig-handle": "", "twitter": "", "facebook": "", "phone": "(562) 220-2090", "website": "https://aging.lacity.org/", "email": ""}}, {"type": "Feature", "geometry": {"type": "Point", "coordinates": [-118.1443602, 33.8522335]}, "properties": {"hours": "Twice a week", "notes": "Combination of Meals", "name": "Weingart Senior Center", "street": "5220 Oliva Ave", "city": "Lakewood", "state": "CA", "zip": "90712", "full-address": "5220 Oliva Ave, Lakewood, CA, 90712", "ig-handle": "", "twitter": "", "facebook": "", "phone": "(562) 630-6210", "website": "https://aging.lacity.org/", "email": ""}}, {"type": "Feature", "geometry": {"type": "Point", "coordinates": [-118.0806726, 33.9031747]}, "properties": {"hours": "Once a week", "notes": "Frozen Meals", "name": "Norwalk Senior Center", "street": "14040 San Antonio Dr", "city": "Norwalk", "state": "CA", "zip": "90650", "full-address": "14040 San Antonio Dr, Norwalk, CA, 90650", "ig-handle": "", "twitter": "", "facebook": "", "phone": "(562) 929-5580", "website": "https://aging.lacity.org/", "email": ""}}, {"type": "Feature", "geometry": {"type": "Point", "coordinates": [-118.0789411, 33.8879577]}, "properties": {"hours": "Once a week", "notes": "Frozen Meals", "name": "Norwalk Social Services", "street": "11929 Alondra Blvd", "city": "Norwalk", "state": "CA", "zip": "90650", "full-address": "11929 Alondra Blvd, Norwalk, CA, 90650", "ig-handle": "", "twitter": "", "facebook": "", "phone": "(562) 929-5544", "website": "https://aging.lacity.org/", "email": ""}}, {"type": "Feature", "geometry": {"type": "Point", "coordinates": [-117.9611536, 34.0027915]}, "properties": {"hours": "Twice a week", "notes": "Combination of Meals", "name": "Steinmetz Park Senior Center", "street": "1545 S Stimson Avenue", "city": "Hacienda Heights", "state": "CA", "zip": "91745", "full-address": "1545 S Stimson Avenue, Hacienda Heights, CA, 91745", "ig-handle": "", "twitter": "", "facebook": "", "phone": "(626) 214- 9462", "website": "https://aging.lacity.org/", "email": ""}}, {"type": "Feature", "geometry": {"type": "Point", "coordinates": [-118.0368826, 33.9423727]}, "properties": {"hours": "Twice a week", "notes": "Combination of Meals", "name": "Adventure Park", "street": "10130 Gunn Ave", "city": "Whittier", "state": "CA", "zip": "90605", "full-address": "10130 Gunn Ave, Whittier, CA, 90605", "ig-handle": "", "twitter": "", "facebook": "", "phone": "(562) 318-8124", "website": "https://aging.lacity.org/", "email": ""}}, {"type": "Feature", "geometry": {"type": "Point", "coordinates": [-118.0854511, 33.9587788]}, "properties": {"hours": "Twice a week", "notes": "Combination of Meals", "name": "Gus Velasco Neighborhood Center", "street": "9255 S Pioneer Blvd", "city": "Santa Fe Springs", "state": "CA", "zip": "90670", "full-address": "9255 S Pioneer Blvd, Santa Fe Springs, CA, 90670", "ig-handle": "", "twitter": "", "facebook": "", "phone": "(562) 692-0261", "website": "https://aging.lacity.org/", "email": ""}}, {"type": "Feature", "geometry": {"type": "Point", "coordinates": [-118.0104204, 33.9050887]}, "properties": {"hours": "Twice a week", "notes": "Combination of Meals", "name": "La Mirada Activity Center", "street": "13810 La Mirada Blvd", "city": "La Mirada", "state": "CA", "zip": "90638", "full-address": "13810 La Mirada Blvd, La Mirada, CA, 90638", "ig-handle": "", "twitter": "", "facebook": "", "phone": "(562) 947-8787", "website": "https://aging.lacity.org/", "email": ""}}, {"type": "Feature", "geometry": {"type": "Point", "coordinates": [-118.0676089, 33.9643446]}, "properties": {"hours": "Twice a week", "notes": "Combination of Meals", "name": "Los Nietos Neighborhood Center", "street": "11640 E Slauson Ave", "city": "Whittier", "state": "CA", "zip": "90606", "full-address": "11640 E Slauson Ave, Whittier, CA, 90606", "ig-handle": "", "twitter": "", "facebook": "", "phone": "(562) 699-9873", "website": "https://aging.lacity.org/", "email": ""}}, {"type": "Feature", "geometry": {"type": "Point", "coordinates": [-118.050553, 33.930235]}, "properties": {"hours": "Twice a week", "notes": "Combination of Meals", "name": "Mayberry Park", "street": "13201 E Meyer Road", "city": "Whittier", "state": "CA", "zip": "90605", "full-address": "13201 E Meyer Road, Whittier, CA, 90605", "ig-handle": "", "twitter": "", "facebook": "", "phone": "(562) 944-8483", "website": "https://aging.lacity.org/", "email": ""}}, {"type": "Feature", "geometry": {"type": "Point", "coordinates": [-118.0341153, 33.9720401]}, "properties": {"hours": "", "notes": "", "name": "Whittier Senior Center", "street": "13225 Walnut Street", "city": "Whittier", "state": "CA", "zip": "90602", "full-address": "13225 Walnut Street, Whittier, CA, 90602", "ig-handle": "", "twitter": "", "facebook": "", "phone": "(562) 567-9439", "website": "https://aging.lacity.org/", "email": ""}}, {"type": "Feature", "geometry": {"type": "Point", "coordinates": [-118.370346, 33.8693031]}, "properties": {"hours": "Once a week", "notes": "Frozen Meals", "name": "Perry Park Senior Center", "street": "2301 Grant Ave", "city": "Redondo Beach", "state": "CA", "zip": "90278", "full-address": "2301 Grant Ave, Redondo Beach, CA, 90278", "ig-handle": "", "twitter": "", "facebook": "", "phone": "(424) 247-8142", "website": "https://aging.lacity.org/", "email": ""}}, {"type": "Feature", "geometry": {"type": "Point", "coordinates": [-118.3377023, 33.8229762]}, "properties": {"hours": "Once a week", "notes": "Frozen Meals", "name": "Torrance South Bay YMCA", "street": "2900 W Sepulveda Blvd", "city": "Torrance", "state": "CA", "zip": "90505", "full-address": "2900 W Sepulveda Blvd, Torrance, CA, 90505", "ig-handle": "", "twitter": "", "facebook": "", "phone": "(310) 325-5885 x2873", "website": "https://aging.lacity.org/", "email": ""}}, {"type": "Feature", "geometry": {"type": "Point", "coordinates": [-118.3895868, 33.8376233]}, "properties": {"hours": "Once a week", "notes": "Frozen Meals", "name": "Veterans' Park Senior Center", "street": "309 Esplanade", "city": "Redondo Beach", "state": "CA", "zip": "90277", "full-address": "309 Esplanade, Redondo Beach, CA, 90277", "ig-handle": "", "twitter": "", "facebook": "", "phone": "(424) 247-8142", "website": "https://aging.lacity.org/", "email": ""}}, {"type": "Feature", "geometry": {"type": "Point", "coordinates": [-118.3203507, 34.1704397]}, "properties": {"hours": "Twice a week", "notes": "Combination of Meals", "name": "Joslyn Adult Center", "street": "1301 W Olive Avenue", "city": "Burbank", "state": "CA", "zip": "91506", "full-address": "1301 W Olive Avenue, Burbank, CA, 91506", "ig-handle": "", "twitter": "", "facebook": "", "phone": "(818) 238-5357", "website": "https://aging.lacity.org/", "email": ""}}, {"type": "Feature", "geometry": {"type": "Point", "coordinates": [-118.3207339, 34.1932393]}, "properties": {"hours": "Twice a week", "notes": "Combination of Meals", "name": "McCambridge Park", "street": "1515 Glenoaks Blvd", "city": "Burbank", "state": "CA", "zip": "91504", "full-address": "1515 Glenoaks Blvd, Burbank, CA, 91504", "ig-handle": "", "twitter": "", "facebook": "", "phone": "(818) 238-5366", "website": "https://aging.lacity.org/", "email": ""}}, {"type": "Feature", "geometry": {"type": "Point", "coordinates": [-118.3449121, 34.1857843]}, "properties": {"hours": "Twice a week", "notes": "Combination of Meals", "name": "Tuttle Senior Center", "street": "1731 North Ontario Street", "city": "Burbank", "state": "CA", "zip": "91505", "full-address": "1731 North Ontario Street, Burbank, CA, 91505", "ig-handle": "", "twitter": "", "facebook": "", "phone": "(818) 238-5367", "website": "https://aging.lacity.org/", "email": ""}}, {"type": "Feature", "geometry": {"type": "Point", "coordinates": [-118.2531191, 34.1432801]}, "properties": {"hours": "Daily", "notes": "Combination of Meals", "name": "Adult Recreation Center", "street": "201 E Colorado St", "city": "Glendale", "state": "CA", "zip": "91205", "full-address": "201 E Colorado St, Glendale, CA, 91205", "ig-handle": "", "twitter": "", "facebook": "", "phone": "(818) 548-3775", "website": "https://aging.lacity.org/", "email": ""}}, {"type": "Feature", "geometry": {"type": "Point", "coordinates": [-118.264745, 34.1392378]}, "properties": {"hours": "Daily", "notes": "Combination of Meals", "name": "Pacific Park Community Center", "street": "501 South Pacific Ave", "city": "Glendale", "state": "CA", "zip": "91203", "full-address": "501 South Pacific Ave, Glendale, CA, 91203", "ig-handle": "", "twitter": "", "facebook": "", "phone": "(818) 548-3773", "website": "https://aging.lacity.org/", "email": ""}}, {"type": "Feature", "geometry": {"type": "Point", "coordinates": [-118.2305048, 34.1990961]}, "properties": {"hours": "Daily", "notes": "Combination of Meals", "name": "Sparr Heights Community Center", "street": "1613 Glencoe Way", "city": "Glendale", "state": "CA", "zip": "91208", "full-address": "1613 Glencoe Way, Glendale, CA, 91208", "ig-handle": "", "twitter": "", "facebook": "", "phone": "(818) 54/-2188", "website": "https://aging.lacity.org/", "email": ""}}, {"type": "Feature", "geometry": {"type": "Point", "coordinates": [-118.1379896, 34.1892018]}, "properties": {"hours": "Twice a week", "notes": "Combination of Meals", "name": "Altadena Senior Center", "street": "560 E Mariposa Street", "city": "Altadena", "state": "CA", "zip": "91001", "full-address": "560 E Mariposa Street, Altadena, CA, 91001", "ig-handle": "", "twitter": "", "facebook": "", "phone": "(626) 214- 9443", "website": "https://aging.lacity.org/", "email": ""}}, {"type": "Feature", "geometry": {"type": "Point", "coordinates": [-117.882251, 34.0944775]}, "properties": {"hours": "Twice a week", "notes": "Combination of Meals", "name": "City of Covina Senior and Community Center", "street": "815 Barranca Ave", "city": "Covina", "state": "CA", "zip": "91723", "full-address": "815 Barranca Ave, Covina, CA, 91723", "ig-handle": "", "twitter": "", "facebook": "", "phone": "(626) 214- 9446", "website": "https://aging.lacity.org/", "email": ""}}, {"type": "Feature", "geometry": {"type": "Point", "coordinates": [-117.9704598, 34.1393041]}, "properties": {"hours": "Twice a week", "notes": "Combination of Meals", "name": "Duarte Senior Center", "street": "1610 Huntington Drive", "city": "Duarte", "state": "CA", "zip": "91010", "full-address": "1610 Huntington Drive, Duarte, CA, 91010", "ig-handle": "", "twitter": "", "facebook": "", "phone": "(626) 214- 9447", "website": "https://aging.lacity.org/", "email": ""}}, {"type": "Feature", "geometry": {"type": "Point", "coordinates": [-118.1502112, 34.1636381]}, "properties": {"hours": "Twice a week", "notes": "Combination of Meals", "name": "Jackie Robinson Center", "street": "1020 N Fair Oaks Avenue", "city": "Pasadena", "state": "CA", "zip": "91103", "full-address": "1020 N Fair Oaks Avenue, Pasadena, CA, 91103", "ig-handle": "", "twitter": "", "facebook": "", "phone": "(626) 214- 9448", "website": "https://aging.lacity.org/", "email": ""}}, {"type": "Feature", "geometry": {"type": "Point", "coordinates": [-118.1244485, 34.0991369]}, "properties": {"hours": "Twice a week", "notes": "Combination of Meals", "name": "Joslyn Center Alhambra", "street": "210 N Chapel", "city": "Alhambra", "state": "CA", "zip": "91801", "full-address": "210 N Chapel, Alhambra, CA, 91801", "ig-handle": "", "twitter": "", "facebook": "", "phone": "(626) 214- 9449", "website": "https://aging.lacity.org/", "email": ""}}, {"type": "Feature", "geometry": {"type": "Point", "coordinates": [-117.8617749, 34.1366784]}, "properties": {"hours": "Twice a week", "notes": "Combination of Meals", "name": "La Fetra Center City of Glendora", "street": "333 East Foothill Boulevard", "city": "Glendora", "state": "CA", "zip": "91740", "full-address": "333 East Foothill Boulevard, Glendora, CA, 91740", "ig-handle": "", "twitter": "", "facebook": "", "phone": "(626) 214- 9450", "website": "https://aging.lacity.org/", "email": ""}}, {"type": "Feature", "geometry": {"type": "Point", "coordinates": [-117.7641372, 34.1117554]}, "properties": {"hours": "Twice a week", "notes": "Combination of Meals", "name": "La Verne Community and Senior Center", "street": "3680 D Street", "city": "La Verne", "state": "CA", "zip": "91750", "full-address": "3680 D Street, La Verne, CA, 91750", "ig-handle": "", "twitter": "", "facebook": "", "phone": "(626) 214- 9452", "website": "https://aging.lacity.org/", "email": ""}}, {"type": "Feature", "geometry": {"type": "Point", "coordinates": [-118.1486, 34.1478774]}, "properties": {"hours": "Twice a week", "notes": "Combination of Meals", "name": "Pasadena Senior Center", "street": "85 E Holy Street", "city": "Pasadena", "state": "CA", "zip": "91103", "full-address": "85 E Holy Street, Pasadena, CA, 91103", "ig-handle": "", "twitter": "", "facebook": "", "phone": "(626) 214- 9457", "website": "https://aging.lacity.org/", "email": ""}}, {"type": "Feature", "geometry": {"type": "Point", "coordinates": [-117.8046593, 34.1070669]}, "properties": {"hours": "Twice a week", "notes": "Combination of Meals", "name": "San Dimas Senior Center", "street": "201 E Bonita Avenue", "city": "San Dimas", "state": "CA", "zip": "91773", "full-address": "201 E Bonita Avenue, San Dimas, CA, 91773", "ig-handle": "", "twitter": "", "facebook": "", "phone": "(626) 214- 9459", "website": "https://aging.lacity.org/", "email": ""}}, {"type": "Feature", "geometry": {"type": "Point", "coordinates": [-118.1084918, 34.097736]}, "properties": {"hours": "Twice a week", "notes": "Combination of Meals", "name": "San Gabriel Senior Center", "street": "324 S Mission Drive", "city": "San Gabriel", "state": "CA", "zip": "91776", "full-address": "324 S Mission Drive, San Gabriel, CA, 91776", "ig-handle": "", "twitter": "", "facebook": "", "phone": "(626) 214- 9460", "website": "https://aging.lacity.org/", "email": ""}}, {"type": "Feature", "geometry": {"type": "Point", "coordinates": [-118.0572354, 34.1612797]}, "properties": {"hours": "Twice a week", "notes": "Combination of Meals", "name": "Sierra Madre Senior Center", "street": "222 W Sierra Madre Blvd", "city": "Sierra Madre", "state": "CA", "zip": "91024", "full-address": "222 W Sierra Madre Blvd, Sierra Madre, CA, 91024", "ig-handle": "", "twitter": "", "facebook": "", "phone": "(626) 214- 9461", "website": "https://aging.lacity.org/", "email": ""}}, {"type": "Feature", "geometry": {"type": "Point", "coordinates": [-118.0478368, 34.1027656]}, "properties": {"hours": "Twice a week", "notes": "Combination of Meals", "name": "Temple City-Live Oak Park Community Center", "street": "10144 Bogue Street", "city": "Temple City", "state": "CA", "zip": "91780", "full-address": "10144 Bogue Street, Temple City, CA, 91780", "ig-handle": "", "twitter": "", "facebook": "", "phone": "(626) 214- 9463", "website": "https://aging.lacity.org/", "email": ""}}, {"type": "Feature", "geometry": {"type": "Point", "coordinates": [-118.1428974, 34.1545746]}, "properties": {"hours": "Twice a week", "notes": "Combination of Meals", "name": "Villa Park Community Center", "street": "363 E Villa Street", "city": "Pasadena", "state": "CA", "zip": "91101", "full-address": "363 E Villa Street, Pasadena, CA, 91101", "ig-handle": "", "twitter": "", "facebook": "", "phone": "(626) 214- 9464", "website": "https://aging.lacity.org/", "email": ""}}, {"type": "Feature", "geometry": {"type": "Point", "coordinates": [-118.1447259, 34.7015757]}, "properties": {"hours": "Daily", "notes": "Combination of Meals", "name": "Antelope Valley Senior Center- Lancaster", "street": "777 W Jackman Street", "city": "Lancaster", "state": "CA", "zip": "93534", "full-address": "777 W Jackman Street, Lancaster, CA, 93534", "ig-handle": "", "twitter": "", "facebook": "", "phone": "(661-948-2320", "website": "https://aging.lacity.org/", "email": ""}}, {"type": "Feature", "geometry": {"type": "Point", "coordinates": [-118.535688, 34.431201]}, "properties": {"hours": "Daily", "notes": "Combination of Meals", "name": "Bouquet Canyon Senior Apartments", "street": "26705 Bouquet Canyon Rd", "city": "Saugus", "state": "CA", "zip": "91350", "full-address": "26705 Bouquet Canyon Rd, Saugus, CA, 91350", "ig-handle": "", "twitter": "", "facebook": "", "phone": "(706) 662-3796", "website": "https://aging.lacity.org/", "email": ""}}, {"type": "Feature", "geometry": {"type": "Point", "coordinates": [-118.4734855, 34.4021619]}, "properties": {"hours": "Daily", "notes": "Combination of Meals", "name": "Friendly Valley", "street": "19246 Avenue of the Oaks", "city": "Newhall", "state": "CA", "zip": "91321", "full-address": "19246 Avenue of the Oaks, Newhall, CA, 91321", "ig-handle": "", "twitter": "", "facebook": "", "phone": "(661) 309-7636", "website": "https://aging.lacity.org/", "email": ""}}, {"type": "Feature", "geometry": {"type": "Point", "coordinates": [-118.1125422, 34.5777959]}, "properties": {"hours": "Daily", "notes": "Combination of Meals", "name": "Palmdale Legacy Commons Active Seniors", "street": "930 E Avenue Q-9", "city": "Palmdale", "state": "CA", "zip": "93550", "full-address": "930 E Avenue Q-9, Palmdale, CA, 93550", "ig-handle": "", "twitter": "", "facebook": "", "phone": "(661) 267-5904", "website": "https://aging.lacity.org/", "email": ""}}, {"type": "Feature", "geometry": {"type": "Point", "coordinates": [-118.5002465, 34.4297937]}, "properties": {"hours": "Daily", "notes": "Combination of Meals", "name": "Santa Clarita Senior Center", "street": "27180 Golden Valley Rd", "city": "Santa Clarita", "state": "CA", "zip": "91350", "full-address": "27180 Golden Valley Rd, Santa Clarita, CA, 91350", "ig-handle": "", "twitter": "", "facebook": "", "phone": "(661) 259-9444", "website": "https://aging.lacity.org/", "email": ""}}, {"type": "Feature", "geometry": {"type": "Point", "coordinates": [-117.8290186, 34.602744]}, "properties": {"hours": "Daily", "notes": "Combination of Meals", "name": "Stephen Sorensen Park", "street": "16801 East Avenue P", "city": "Palmdale", "state": "CA", "zip": "93591", "full-address": "16801 East Avenue P, Palmdale, CA, 93591", "ig-handle": "", "twitter": "", "facebook": "", "phone": "(661) 264-1249", "website": "https://aging.lacity.org/", "email": ""}}, {"type": "Feature", "geometry": {"type": "Point", "coordinates": [-117.8233091, 34.6072723]}, "properties": {"hours": "Daily", "notes": "Combination of Meals", "name": "Twin Lakes Community Church", "street": "17213 Lake Los Angeles Ave", "city": "Palmdale", "state": "CA", "zip": "93591", "full-address": "17213 Lake Los Angeles Ave, Palmdale, CA, 93591", "ig-handle": "", "twitter": "", "facebook": "", "phone": "(661) 264-1215", "website": "https://aging.lacity.org/", "email": ""}}, {"type": "Feature", "geometry": {"type": "Point", "coordinates": [-118.1857858, 33.9608646]}, "properties": {"hours": "", "notes": "Essential meals for seniors (65+) living in Cudahy. Up to 10 meals per person a week.", "name": "Cudahy Parks and Recreation Department", "street": "", "city": "Cudahy", "state": "CA", "zip": "90201", "full-address": ", Cudahy, CA, 90201", "ig-handle": "@cityofcudahyca", "twitter": "", "facebook": "", "phone": "(323) 773-5143, ext. 232", "website": "", "email": "vsantiago@cityofcudahyca.gov"}}, {"type": "Feature", "geometry": {"type": "Point", "coordinates": [-118.2468148, 33.9697897]}, "properties": {"hours": "", "notes": "Groceries for seniors (65+) living in Florence-Firestone.", "name": "", "street": "Florence and Firestone", "city": "Huntington Park", "state": "CA", "zip": "90001", "full-address": "Florence and Firestone, Huntington Park, CA, 90001", "ig-handle": "@juntosfftogether", "twitter": "", "facebook": "", "phone": "(323) 749-7246", "website": "", "email": ""}}, {"type": "Feature", "geometry": {"type": "Point", "coordinates": [-118.1870156, 33.9775142]}, "properties": {"hours": "", "notes": "Essential meals and services for seniors (65+) living in Bell. DM on instagram or call for assistance", "name": "City of Bell", "street": "", "city": "Bell", "state": "CA", "zip": "", "full-address": ", Bell, CA,", "ig-handle": "@cityofbell", "twitter": "", "facebook": "", "phone": "(323) 749-1596", "website": "", "email": ""}}, {"type": "Feature", "geometry": {"type": "Point", "coordinates": [-118.1514588, 33.9652918]}, "properties": {"hours": "", "notes": "Essential meals and services for seniors (65+) living in Bell Gardens.", "name": "Bell Gardens Recreational and Community Services", "street": "", "city": "Bell Gardens", "state": "CA", "zip": "", "full-address": ", Bell Gardens, CA,", "ig-handle": "@bgrecreation", "twitter": "", "facebook": "", "phone": "(562) 334-1779 or (562) 806-7650", "website": "", "email": ""}}, {"type": "Feature", "geometry": {"type": "Point", "coordinates": [-118.341824, 33.9167845]}, "properties": {"hours": "Monday through Thursday 10AM-1PM", "notes": "The Grab N Go Program provides one bag of snacks per senior age 60 and older. Must be present.", "name": "City of Hawthorne", "street": "3901 W. El Segundo Blvd.", "city": "Hawthorne", "state": "CA", "zip": "", "full-address": "3901 W. El Segundo Blvd., Hawthorne, CA,", "ig-handle": "", "twitter": "", "facebook": "", "phone": "", "website": "http://www.cityofhawthorne.org/coronavirus", "email": ""}}, {"type": "Feature", "geometry": {"type": "Point", "coordinates": [-117.4151198, 34.0006017]}, "properties": {"hours": "Wednesday 11 am - 1 pm", "notes": "grab n go meals by the family service association", "name": "Emily Dee Smith Senior Center", "street": "5888 Mission Blvd", "city": "Riverside", "state": "CA", "zip": "92509", "full-address": "5888 Mission Blvd, Riverside, CA, 92509", "ig-handle": "", "twitter": "", "facebook": "", "phone": "9518273613", "website": "", "email": ""}}, {"type": "Feature", "geometry": {"type": "Point", "coordinates": [-117.3163462, 34.0159739]}, "properties": {"hours": "Wednesday 11 am - 1 pm", "notes": "grab n go meals by the family service association", "name": "norton younglove Community Center", "street": "195 Center Street", "city": "Riverside", "state": "CA", "zip": "92507", "full-address": "195 Center Street, Riverside, CA, 92507", "ig-handle": "", "twitter": "", "facebook": "", "phone": "9513416634", "website": "", "email": ""}}, {"type": "Feature", "geometry": {"type": "Point", "coordinates": [-117.561458, 33.921099]}, "properties": {"hours": "Friday 11:30 am - 12:30 pm", "notes": "grab n go meals by Sodexo", "name": "Rose M Eldrige Senior Center", "street": "2690 Clark Ave", "city": "Norco", "state": "CA", "zip": "92861", "full-address": "2690 Clark Ave, Norco, CA, 92861", "ig-handle": "", "twitter": "", "facebook": "", "phone": "9518273613", "website": "", "email": ""}}, {"type": "Feature", "geometry": {"type": "Point", "coordinates": [-117.3555421, 33.9671551]}, "properties": {"hours": "Friday 11:30 am - 12:30 pm", "notes": "grab n go meals by Sodexo", "name": "Stratton Community Center", "street": "2008 Martin Luther King Blvd", "city": "Riverside", "state": "CA", "zip": "92507", "full-address": "2008 Martin Luther King Blvd, Riverside, CA, 92507", "ig-handle": "", "twitter": "", "facebook": "", "phone": "9518273613", "website": "", "email": ""}}, {"type": "Feature", "geometry": {"type": "Point", "coordinates": [-117.3373613, 33.9750106]}, "properties": {"hours": "Friday 11:30 am - 12:30 pm", "notes": "grab n go meals by Sodexo", "name": "UCR Extension Cafeteria/ Senior Nutrition Center", "street": "1200 University Ave", "city": "Riverside", "state": "CA", "zip": "92507", "full-address": "1200 University Ave, Riverside, CA, 92507", "ig-handle": "", "twitter": "", "facebook": "", "phone": "9518273613", "website": "", "email": ""}}, {"type": "Feature", "geometry": {"type": "Point", "coordinates": [-117.3973585, 33.9342857]}, "properties": {"hours": "Friday 11:30 am - 12:30 pm", "notes": "grab n go meals by Sodexo", "name": "Ysmael Villegas Community Center", "street": "3091 Esperanza St.", "city": "Riverside", "state": "CA", "zip": "92504", "full-address": "3091 Esperanza St., Riverside, CA, 92504", "ig-handle": "", "twitter": "", "facebook": "", "phone": "9518273613", "website": "", "email": ""}}, {"type": "Feature", "geometry": {"type": "Point", "coordinates": [-117.5538496, 33.860163]}, "properties": {"hours": "Friday 11:30 am - 12:30 pm", "notes": "grab n go meals by Sodexo (Corona Casa Grande Residents Only)", "name": "Corona Senior Center", "street": "801 Magnolia Ave", "city": "Corona", "state": "CA", "zip": "92879", "full-address": "801 Magnolia Ave, Corona, CA, 92879", "ig-handle": "", "twitter": "", "facebook": "", "phone": "9518276316", "website": "", "email": ""}}], "name": "seniors"}